route_name,stop_id,stop_name,lat,lon,arrival,headway_next
10,6198,Rhode Island St & 24th St  ,37.753386,-122.401569,1349954785,1636
10,6198,Rhode Island St & 24th St  ,37.753386,-122.401569,1349956421,2829
10,6198,Rhode Island St & 24th St  ,37.753386,-122.401569,1349959250,1002
10,6198,Rhode Island St & 24th St  ,37.753386,-122.401569,1349960252,281
10,6198,Rhode Island St & 24th St  ,37.753386,-122.401569,1349960533,2542
10,6198,Rhode Island St & 24th St  ,37.753386,-122.401569,1349963075,1897
10,6198,Rhode Island St & 24th St  ,37.753386,-122.401569,1349964972,222
10,6198,Rhode Island St & 24th St  ,37.753386,-122.401569,1349965194,99
10,6198,Rhode Island St & 24th St  ,37.753386,-122.401569,1349965293,1743
10,6198,Rhode Island St & 24th St  ,37.753386,-122.401569,1349967036,490
10,6198,Rhode Island St & 24th St  ,37.753386,-122.401569,1349967526,754
10,6198,Rhode Island St & 24th St  ,37.753386,-122.401569,1349968280,1127
10,6198,Rhode Island St & 24th St  ,37.753386,-122.401569,1349969407,1652
10,6198,Rhode Island St & 24th St  ,37.753386,-122.401569,1349971059,566
10,6198,Rhode Island St & 24th St  ,37.753386,-122.401569,1349971625,1822
10,6198,Rhode Island St & 24th St  ,37.753386,-122.401569,1349973447,817
10,6198,Rhode Island St & 24th St  ,37.753386,-122.401569,1349974264,2003
10,6198,Rhode Island St & 24th St  ,37.753386,-122.401569,1349976267,535
10,6198,Rhode Island St & 24th St  ,37.753386,-122.401569,1349976802,1222
10,6198,Rhode Island St & 24th St  ,37.753386,-122.401569,1349978024,1315
10,6198,Rhode Island St & 24th St  ,37.753386,-122.401569,1349979339,458
10,6198,Rhode Island St & 24th St  ,37.753386,-122.401569,1349979797,1660
10,6198,Rhode Island St & 24th St  ,37.753386,-122.401569,1349981457,503
10,6198,Rhode Island St & 24th St  ,37.753386,-122.401569,1349981960,1984
10,6198,Rhode Island St & 24th St  ,37.753386,-122.401569,1349983944,1258
10,6198,Rhode Island St & 24th St  ,37.753386,-122.401569,1349985202,1012
10,6198,Rhode Island St & 24th St  ,37.753386,-122.401569,1349986214,1045
10,6198,Rhode Island St & 24th St  ,37.753386,-122.401569,1349987259,1286
10,6198,Rhode Island St & 24th St  ,37.753386,-122.401569,1349988545,1192
10,6198,Rhode Island St & 24th St  ,37.753386,-122.401569,1349989737,1403
10,6198,Rhode Island St & 24th St  ,37.753386,-122.401569,1349991140,1264
10,6198,Rhode Island St & 24th St  ,37.753386,-122.401569,1349992404,1158
10,6198,Rhode Island St & 24th St  ,37.753386,-122.401569,1349993562,1060
10,6198,Rhode Island St & 24th St  ,37.753386,-122.401569,1349994622,1367
10,6198,Rhode Island St & 24th St  ,37.753386,-122.401569,1349995989,1646
10,6198,Rhode Island St & 24th St  ,37.753386,-122.401569,1349997635,3186
10,6198,Rhode Island St & 24th St  ,37.753386,-122.401569,1350000821,1888
10,6198,Rhode Island St & 24th St  ,37.753386,-122.401569,1350002709,1283
10,6198,Rhode Island St & 24th St  ,37.753386,-122.401569,1350003992,1267
10,6198,Rhode Island St & 24th St  ,37.753386,-122.401569,1350005259,1377
10,6198,Rhode Island St & 24th St  ,37.753386,-122.401569,1350006636,848
10,6198,Rhode Island St & 24th St  ,37.753386,-122.401569,1350007484,1391
10,6198,Rhode Island St & 24th St  ,37.753386,-122.401569,1350008875,2144
10,7518,24th Street & Potrero Avenue,37.753067,-122.40621,1349954785,1636
10,7518,24th Street & Potrero Avenue,37.753067,-122.40621,1349956421,2829
10,7518,24th Street & Potrero Avenue,37.753067,-122.40621,1349959250,1002
10,7518,24th Street & Potrero Avenue,37.753067,-122.40621,1349960252,281
10,7518,24th Street & Potrero Avenue,37.753067,-122.40621,1349960533,2542
10,7518,24th Street & Potrero Avenue,37.753067,-122.40621,1349963075,1897
10,7518,24th Street & Potrero Avenue,37.753067,-122.40621,1349964972,222
10,7518,24th Street & Potrero Avenue,37.753067,-122.40621,1349965194,99
10,7518,24th Street & Potrero Avenue,37.753067,-122.40621,1349965293,1743
10,7518,24th Street & Potrero Avenue,37.753067,-122.40621,1349967036,490
10,7518,24th Street & Potrero Avenue,37.753067,-122.40621,1349967526,754
10,7518,24th Street & Potrero Avenue,37.753067,-122.40621,1349968280,1127
10,7518,24th Street & Potrero Avenue,37.753067,-122.40621,1349969407,1652
10,7518,24th Street & Potrero Avenue,37.753067,-122.40621,1349971059,566
10,7518,24th Street & Potrero Avenue,37.753067,-122.40621,1349971625,1822
10,7518,24th Street & Potrero Avenue,37.753067,-122.40621,1349973447,817
10,7518,24th Street & Potrero Avenue,37.753067,-122.40621,1349974264,2003
10,7518,24th Street & Potrero Avenue,37.753067,-122.40621,1349976267,535
10,7518,24th Street & Potrero Avenue,37.753067,-122.40621,1349976802,1222
10,7518,24th Street & Potrero Avenue,37.753067,-122.40621,1349978024,1315
10,7518,24th Street & Potrero Avenue,37.753067,-122.40621,1349979339,458
10,7518,24th Street & Potrero Avenue,37.753067,-122.40621,1349979797,1660
10,7518,24th Street & Potrero Avenue,37.753067,-122.40621,1349981457,503
10,7518,24th Street & Potrero Avenue,37.753067,-122.40621,1349981960,1984
10,7518,24th Street & Potrero Avenue,37.753067,-122.40621,1349983944,1258
10,7518,24th Street & Potrero Avenue,37.753067,-122.40621,1349985202,1012
10,7518,24th Street & Potrero Avenue,37.753067,-122.40621,1349986214,1045
10,7518,24th Street & Potrero Avenue,37.753067,-122.40621,1349987259,1286
10,7518,24th Street & Potrero Avenue,37.753067,-122.40621,1349988545,1192
10,7518,24th Street & Potrero Avenue,37.753067,-122.40621,1349989737,1403
10,7518,24th Street & Potrero Avenue,37.753067,-122.40621,1349991140,1264
10,7518,24th Street & Potrero Avenue,37.753067,-122.40621,1349992404,1158
10,7518,24th Street & Potrero Avenue,37.753067,-122.40621,1349993562,1060
10,7518,24th Street & Potrero Avenue,37.753067,-122.40621,1349994622,1367
10,7518,24th Street & Potrero Avenue,37.753067,-122.40621,1349995989,1646
10,7518,24th Street & Potrero Avenue,37.753067,-122.40621,1349997635,3186
10,7518,24th Street & Potrero Avenue,37.753067,-122.40621,1350000821,1888
10,7518,24th Street & Potrero Avenue,37.753067,-122.40621,1350002709,1283
10,7518,24th Street & Potrero Avenue,37.753067,-122.40621,1350003992,1267
10,7518,24th Street & Potrero Avenue,37.753067,-122.40621,1350005259,1377
10,7518,24th Street & Potrero Avenue,37.753067,-122.40621,1350006636,848
10,7518,24th Street & Potrero Avenue,37.753067,-122.40621,1350007484,1391
10,7518,24th Street & Potrero Avenue,37.753067,-122.40621,1350008875,2144
10,3452,23rd St & Rhode Island St  ,37.75451,-122.401694,1349955650,955
10,3452,23rd St & Rhode Island St  ,37.75451,-122.401694,1349956605,2709
10,3452,23rd St & Rhode Island St  ,37.75451,-122.401694,1349959314,974
10,3452,23rd St & Rhode Island St  ,37.75451,-122.401694,1349960288,418
10,3452,23rd St & Rhode Island St  ,37.75451,-122.401694,1349960706,2354
10,3452,23rd St & Rhode Island St  ,37.75451,-122.401694,1349963060,1934
10,3452,23rd St & Rhode Island St  ,37.75451,-122.401694,1349964994,222
10,3452,23rd St & Rhode Island St  ,37.75451,-122.401694,1349965216,117
10,3452,23rd St & Rhode Island St  ,37.75451,-122.401694,1349965333,1723
10,3452,23rd St & Rhode Island St  ,37.75451,-122.401694,1349967056,490
10,3452,23rd St & Rhode Island St  ,37.75451,-122.401694,1349967546,784
10,3452,23rd St & Rhode Island St  ,37.75451,-122.401694,1349968330,1148
10,3452,23rd St & Rhode Island St  ,37.75451,-122.401694,1349969478,1535
10,3452,23rd St & Rhode Island St  ,37.75451,-122.401694,1349971013,593
10,3452,23rd St & Rhode Island St  ,37.75451,-122.401694,1349971606,1854
10,3452,23rd St & Rhode Island St  ,37.75451,-122.401694,1349973460,898
10,3452,23rd St & Rhode Island St  ,37.75451,-122.401694,1349974358,1988
10,3452,23rd St & Rhode Island St  ,37.75451,-122.401694,1349976346,469
10,3452,23rd St & Rhode Island St  ,37.75451,-122.401694,1349976815,1200
10,3452,23rd St & Rhode Island St  ,37.75451,-122.401694,1349978015,1224
10,3452,23rd St & Rhode Island St  ,37.75451,-122.401694,1349979239,2263
10,3452,23rd St & Rhode Island St  ,37.75451,-122.401694,1349981502,472
10,3452,23rd St & Rhode Island St  ,37.75451,-122.401694,1349981974,1950
10,3452,23rd St & Rhode Island St  ,37.75451,-122.401694,1349983924,1172
10,3452,23rd St & Rhode Island St  ,37.75451,-122.401694,1349985096,1065
10,3452,23rd St & Rhode Island St  ,37.75451,-122.401694,1349986161,266
10,3452,23rd St & Rhode Island St  ,37.75451,-122.401694,1349986427,832
10,3452,23rd St & Rhode Island St  ,37.75451,-122.401694,1349987259,1271
10,3452,23rd St & Rhode Island St  ,37.75451,-122.401694,1349988530,1176
10,3452,23rd St & Rhode Island St  ,37.75451,-122.401694,1349989706,1522
10,3452,23rd St & Rhode Island St  ,37.75451,-122.401694,1349991228,932
10,3452,23rd St & Rhode Island St  ,37.75451,-122.401694,1349992160,1479
10,3452,23rd St & Rhode Island St  ,37.75451,-122.401694,1349993639,1086
10,3452,23rd St & Rhode Island St  ,37.75451,-122.401694,1349994725,1353
10,3452,23rd St & Rhode Island St  ,37.75451,-122.401694,1349996078,1513
10,3452,23rd St & Rhode Island St  ,37.75451,-122.401694,1349997591,3178
10,3452,23rd St & Rhode Island St  ,37.75451,-122.401694,1350000769,2141
10,3452,23rd St & Rhode Island St  ,37.75451,-122.401694,1350002910,1161
10,3452,23rd St & Rhode Island St  ,37.75451,-122.401694,1350004071,1216
10,3452,23rd St & Rhode Island St  ,37.75451,-122.401694,1350005287,61
10,3452,23rd St & Rhode Island St  ,37.75451,-122.401694,1350005348,2173
10,3452,23rd St & Rhode Island St  ,37.75451,-122.401694,1350007521,1391
10,3452,23rd St & Rhode Island St  ,37.75451,-122.401694,1350008912,2140
10,3450,23RD ST & KANSAS ST,37.754448,-122.402668,1349955691,922
10,3450,23RD ST & KANSAS ST,37.754448,-122.402668,1349956613,2713
10,3450,23RD ST & KANSAS ST,37.754448,-122.402668,1349959326,901
10,3450,23RD ST & KANSAS ST,37.754448,-122.402668,1349960227,497
10,3450,23RD ST & KANSAS ST,37.754448,-122.402668,1349960724,2338
10,3450,23RD ST & KANSAS ST,37.754448,-122.402668,1349963062,1933
10,3450,23RD ST & KANSAS ST,37.754448,-122.402668,1349964995,226
10,3450,23RD ST & KANSAS ST,37.754448,-122.402668,1349965221,127
10,3450,23RD ST & KANSAS ST,37.754448,-122.402668,1349965348,1709
10,3450,23RD ST & KANSAS ST,37.754448,-122.402668,1349967057,491
10,3450,23RD ST & KANSAS ST,37.754448,-122.402668,1349967548,701
10,3450,23RD ST & KANSAS ST,37.754448,-122.402668,1349968249,1233
10,3450,23RD ST & KANSAS ST,37.754448,-122.402668,1349969482,1535
10,3450,23RD ST & KANSAS ST,37.754448,-122.402668,1349971017,591
10,3450,23RD ST & KANSAS ST,37.754448,-122.402668,1349971608,1678
10,3450,23RD ST & KANSAS ST,37.754448,-122.402668,1349973286,178
10,3450,23RD ST & KANSAS ST,37.754448,-122.402668,1349973464,898
10,3450,23RD ST & KANSAS ST,37.754448,-122.402668,1349974362,2454
10,3450,23RD ST & KANSAS ST,37.754448,-122.402668,1349976816,1204
10,3450,23RD ST & KANSAS ST,37.754448,-122.402668,1349978020,1223
10,3450,23RD ST & KANSAS ST,37.754448,-122.402668,1349979243,1151
10,3450,23RD ST & KANSAS ST,37.754448,-122.402668,1349980394,1111
10,3450,23RD ST & KANSAS ST,37.754448,-122.402668,1349981505,470
10,3450,23RD ST & KANSAS ST,37.754448,-122.402668,1349981975,1951
10,3450,23RD ST & KANSAS ST,37.754448,-122.402668,1349983926,1175
10,3450,23RD ST & KANSAS ST,37.754448,-122.402668,1349985101,1065
10,3450,23RD ST & KANSAS ST,37.754448,-122.402668,1349986166,1096
10,3450,23RD ST & KANSAS ST,37.754448,-122.402668,1349987262,1271
10,3450,23RD ST & KANSAS ST,37.754448,-122.402668,1349988533,1175
10,3450,23RD ST & KANSAS ST,37.754448,-122.402668,1349989708,1521
10,3450,23RD ST & KANSAS ST,37.754448,-122.402668,1349991229,941
10,3450,23RD ST & KANSAS ST,37.754448,-122.402668,1349992170,1472
10,3450,23RD ST & KANSAS ST,37.754448,-122.402668,1349993642,953
10,3450,23RD ST & KANSAS ST,37.754448,-122.402668,1349994595,1472
10,3450,23RD ST & KANSAS ST,37.754448,-122.402668,1349996067,1529
10,3450,23RD ST & KANSAS ST,37.754448,-122.402668,1349997596,3175
10,3450,23RD ST & KANSAS ST,37.754448,-122.402668,1350000771,2137
10,3450,23RD ST & KANSAS ST,37.754448,-122.402668,1350002908,1178
10,3450,23RD ST & KANSAS ST,37.754448,-122.402668,1350004086,1262
10,3450,23RD ST & KANSAS ST,37.754448,-122.402668,1350005348,96
10,3450,23RD ST & KANSAS ST,37.754448,-122.402668,1350005444,2079
10,3450,23RD ST & KANSAS ST,37.754448,-122.402668,1350007523,1392
10,3450,23RD ST & KANSAS ST,37.754448,-122.402668,1350008915,2138
10,3456,23rd St & Vermont St  ,37.754395,-122.403631,1349955732,890
10,3456,23rd St & Vermont St  ,37.754395,-122.403631,1349956622,2715
10,3456,23rd St & Vermont St  ,37.754395,-122.403631,1349959337,891
10,3456,23rd St & Vermont St  ,37.754395,-122.403631,1349960228,566
10,3456,23rd St & Vermont St  ,37.754395,-122.403631,1349960794,2270
10,3456,23rd St & Vermont St  ,37.754395,-122.403631,1349963064,1932
10,3456,23rd St & Vermont St  ,37.754395,-122.403631,1349964996,230
10,3456,23rd St & Vermont St  ,37.754395,-122.403631,1349965226,138
10,3456,23rd St & Vermont St  ,37.754395,-122.403631,1349965364,1694
10,3456,23rd St & Vermont St  ,37.754395,-122.403631,1349967058,493
10,3456,23rd St & Vermont St  ,37.754395,-122.403631,1349967551,702
10,3456,23rd St & Vermont St  ,37.754395,-122.403631,1349968253,1233
10,3456,23rd St & Vermont St  ,37.754395,-122.403631,1349969486,1536
10,3456,23rd St & Vermont St  ,37.754395,-122.403631,1349971022,588
10,3456,23rd St & Vermont St  ,37.754395,-122.403631,1349971610,1710
10,3456,23rd St & Vermont St  ,37.754395,-122.403631,1349973320,147
10,3456,23rd St & Vermont St  ,37.754395,-122.403631,1349973467,899
10,3456,23rd St & Vermont St  ,37.754395,-122.403631,1349974366,2451
10,3456,23rd St & Vermont St  ,37.754395,-122.403631,1349976817,1207
10,3456,23rd St & Vermont St  ,37.754395,-122.403631,1349978024,1222
10,3456,23rd St & Vermont St  ,37.754395,-122.403631,1349979246,896
10,3456,23rd St & Vermont St  ,37.754395,-122.403631,1349980142,1366
10,3456,23rd St & Vermont St  ,37.754395,-122.403631,1349981508,469
10,3456,23rd St & Vermont St  ,37.754395,-122.403631,1349981977,1952
10,3456,23rd St & Vermont St  ,37.754395,-122.403631,1349983929,1176
10,3456,23rd St & Vermont St  ,37.754395,-122.403631,1349985105,1066
10,3456,23rd St & Vermont St  ,37.754395,-122.403631,1349986171,1093
10,3456,23rd St & Vermont St  ,37.754395,-122.403631,1349987264,1271
10,3456,23rd St & Vermont St  ,37.754395,-122.403631,1349988535,1176
10,3456,23rd St & Vermont St  ,37.754395,-122.403631,1349989711,1442
10,3456,23rd St & Vermont St  ,37.754395,-122.403631,1349991153,1028
10,3456,23rd St & Vermont St  ,37.754395,-122.403631,1349992181,1463
10,3456,23rd St & Vermont St  ,37.754395,-122.403631,1349993644,954
10,3456,23rd St & Vermont St  ,37.754395,-122.403631,1349994598,1472
10,3456,23rd St & Vermont St  ,37.754395,-122.403631,1349996070,1531
10,3456,23rd St & Vermont St  ,37.754395,-122.403631,1349997601,3172
10,3456,23rd St & Vermont St  ,37.754395,-122.403631,1350000773,2137
10,3456,23rd St & Vermont St  ,37.754395,-122.403631,1350002910,1177
10,3456,23rd St & Vermont St  ,37.754395,-122.403631,1350004087,1258
10,3456,23rd St & Vermont St  ,37.754395,-122.403631,1350005345,255
10,3456,23rd St & Vermont St  ,37.754395,-122.403631,1350005600,1925
10,3456,23rd St & Vermont St  ,37.754395,-122.403631,1350007525,1393
10,3456,23rd St & Vermont St  ,37.754395,-122.403631,1350008918,2136
10,3454,23rd St & Utah St  ,37.754298,-122.405304,1349955805,842
10,3454,23rd St & Utah St  ,37.754298,-122.405304,1349956647,2710
10,3454,23rd St & Utah St  ,37.754298,-122.405304,1349959357,874
10,3454,23rd St & Utah St  ,37.754298,-122.405304,1349960231,567
10,3454,23rd St & Utah St  ,37.754298,-122.405304,1349960798,2271
10,3454,23rd St & Utah St  ,37.754298,-122.405304,1349963069,1929
10,3454,23rd St & Utah St  ,37.754298,-122.405304,1349964998,238
10,3454,23rd St & Utah St  ,37.754298,-122.405304,1349965236,179
10,3454,23rd St & Utah St  ,37.754298,-122.405304,1349965415,1645
10,3454,23rd St & Utah St  ,37.754298,-122.405304,1349967060,495
10,3454,23rd St & Utah St  ,37.754298,-122.405304,1349967555,704
10,3454,23rd St & Utah St  ,37.754298,-122.405304,1349968259,1235
10,3454,23rd St & Utah St  ,37.754298,-122.405304,1349969494,1537
10,3454,23rd St & Utah St  ,37.754298,-122.405304,1349971031,583
10,3454,23rd St & Utah St  ,37.754298,-122.405304,1349971614,1769
10,3454,23rd St & Utah St  ,37.754298,-122.405304,1349973383,90
10,3454,23rd St & Utah St  ,37.754298,-122.405304,1349973473,901
10,3454,23rd St & Utah St  ,37.754298,-122.405304,1349974374,2444
10,3454,23rd St & Utah St  ,37.754298,-122.405304,1349976818,1214
10,3454,23rd St & Utah St  ,37.754298,-122.405304,1349978032,1221
10,3454,23rd St & Utah St  ,37.754298,-122.405304,1349979253,909
10,3454,23rd St & Utah St  ,37.754298,-122.405304,1349980162,1350
10,3454,23rd St & Utah St  ,37.754298,-122.405304,1349981512,468
10,3454,23rd St & Utah St  ,37.754298,-122.405304,1349981980,1953
10,3454,23rd St & Utah St  ,37.754298,-122.405304,1349983933,1181
10,3454,23rd St & Utah St  ,37.754298,-122.405304,1349985114,1067
10,3454,23rd St & Utah St  ,37.754298,-122.405304,1349986181,1087
10,3454,23rd St & Utah St  ,37.754298,-122.405304,1349987268,1271
10,3454,23rd St & Utah St  ,37.754298,-122.405304,1349988539,1176
10,3454,23rd St & Utah St  ,37.754298,-122.405304,1349989715,1443
10,3454,23rd St & Utah St  ,37.754298,-122.405304,1349991158,1041
10,3454,23rd St & Utah St  ,37.754298,-122.405304,1349992199,1449
10,3454,23rd St & Utah St  ,37.754298,-122.405304,1349993648,956
10,3454,23rd St & Utah St  ,37.754298,-122.405304,1349994604,1470
10,3454,23rd St & Utah St  ,37.754298,-122.405304,1349996074,1536
10,3454,23rd St & Utah St  ,37.754298,-122.405304,1349997610,3167
10,3454,23rd St & Utah St  ,37.754298,-122.405304,1350000777,2136
10,3454,23rd St & Utah St  ,37.754298,-122.405304,1350002913,1176
10,3454,23rd St & Utah St  ,37.754298,-122.405304,1350004089,1258
10,3454,23rd St & Utah St  ,37.754298,-122.405304,1350005347,534
10,3454,23rd St & Utah St  ,37.754298,-122.405304,1350005881,1647
10,3454,23rd St & Utah St  ,37.754298,-122.405304,1350007528,1396
10,3454,23rd St & Utah St  ,37.754298,-122.405304,1350008924,2132
10,3457,23rd St & Wisconsin St  ,37.75481,-122.39856,1349955934,984
10,3457,23rd St & Wisconsin St  ,37.75481,-122.39856,1349956918,2662
10,3457,23rd St & Wisconsin St  ,37.75481,-122.39856,1349959580,763
10,3457,23rd St & Wisconsin St  ,37.75481,-122.39856,1349960343,772
10,3457,23rd St & Wisconsin St  ,37.75481,-122.39856,1349961115,2216
10,3457,23rd St & Wisconsin St  ,37.75481,-122.39856,1349963331,1762
10,3457,23rd St & Wisconsin St  ,37.75481,-122.39856,1349965093,407
10,3457,23rd St & Wisconsin St  ,37.75481,-122.39856,1349965500,81
10,3457,23rd St & Wisconsin St  ,37.75481,-122.39856,1349965581,1567
10,3457,23rd St & Wisconsin St  ,37.75481,-122.39856,1349967148,648
10,3457,23rd St & Wisconsin St  ,37.75481,-122.39856,1349967796,704
10,3457,23rd St & Wisconsin St  ,37.75481,-122.39856,1349968500,1361
10,3457,23rd St & Wisconsin St  ,37.75481,-122.39856,1349969861,1488
10,3457,23rd St & Wisconsin St  ,37.75481,-122.39856,1349971349,485
10,3457,23rd St & Wisconsin St  ,37.75481,-122.39856,1349971834,1900
10,3457,23rd St & Wisconsin St  ,37.75481,-122.39856,1349973734,952
10,3457,23rd St & Wisconsin St  ,37.75481,-122.39856,1349974686,1862
10,3457,23rd St & Wisconsin St  ,37.75481,-122.39856,1349976548,329
10,3457,23rd St & Wisconsin St  ,37.75481,-122.39856,1349976877,1424
10,3457,23rd St & Wisconsin St  ,37.75481,-122.39856,1349978301,1354
10,3457,23rd St & Wisconsin St  ,37.75481,-122.39856,1349979655,1013
10,3457,23rd St & Wisconsin St  ,37.75481,-122.39856,1349980668,1071
10,3457,23rd St & Wisconsin St  ,37.75481,-122.39856,1349981739,328
10,3457,23rd St & Wisconsin St  ,37.75481,-122.39856,1349982067,2076
10,3457,23rd St & Wisconsin St  ,37.75481,-122.39856,1349984143,1314
10,3457,23rd St & Wisconsin St  ,37.75481,-122.39856,1349985457,1054
10,3457,23rd St & Wisconsin St  ,37.75481,-122.39856,1349986511,953
10,3457,23rd St & Wisconsin St  ,37.75481,-122.39856,1349987464,1281
10,3457,23rd St & Wisconsin St  ,37.75481,-122.39856,1349988745,1240
10,3457,23rd St & Wisconsin St  ,37.75481,-122.39856,1349989985,1434
10,3457,23rd St & Wisconsin St  ,37.75481,-122.39856,1349991419,1293
10,3457,23rd St & Wisconsin St  ,37.75481,-122.39856,1349992712,1148
10,3457,23rd St & Wisconsin St  ,37.75481,-122.39856,1349993860,1041
10,3457,23rd St & Wisconsin St  ,37.75481,-122.39856,1349994901,1379
10,3457,23rd St & Wisconsin St  ,37.75481,-122.39856,1349996280,1655
10,3457,23rd St & Wisconsin St  ,37.75481,-122.39856,1349997935,3034
10,3457,23rd St & Wisconsin St  ,37.75481,-122.39856,1350000969,2091
10,3457,23rd St & Wisconsin St  ,37.75481,-122.39856,1350003060,1115
10,3457,23rd St & Wisconsin St  ,37.75481,-122.39856,1350004175,1266
10,3457,23rd St & Wisconsin St  ,37.75481,-122.39856,1350005441,1383
10,3457,23rd St & Wisconsin St  ,37.75481,-122.39856,1350006824,864
10,3457,23rd St & Wisconsin St  ,37.75481,-122.39856,1350007688,1476
10,3457,23rd St & Wisconsin St  ,37.75481,-122.39856,1350009164,1995
10,7546,Dakota St & 23rd St,37.754705,-122.396572,1349955934,1131
10,7546,Dakota St & 23rd St,37.754705,-122.396572,1349957065,2589
10,7546,Dakota St & 23rd St,37.754705,-122.396572,1349959654,685
10,7546,Dakota St & 23rd St,37.754705,-122.396572,1349960339,800
10,7546,Dakota St & 23rd St,37.754705,-122.396572,1349961139,2209
10,7546,Dakota St & 23rd St,37.754705,-122.396572,1349963348,1748
10,7546,Dakota St & 23rd St,37.754705,-122.396572,1349965096,470
10,7546,Dakota St & 23rd St,37.754705,-122.396572,1349965566,31
10,7546,Dakota St & 23rd St,37.754705,-122.396572,1349965597,1554
10,7546,Dakota St & 23rd St,37.754705,-122.396572,1349967151,657
10,7546,Dakota St & 23rd St,37.754705,-122.396572,1349967808,722
10,7546,Dakota St & 23rd St,37.754705,-122.396572,1349968530,1317
10,7546,Dakota St & 23rd St,37.754705,-122.396572,1349969847,1505
10,7546,Dakota St & 23rd St,37.754705,-122.396572,1349971352,408
10,7546,Dakota St & 23rd St,37.754705,-122.396572,1349971760,1978
10,7546,Dakota St & 23rd St,37.754705,-122.396572,1349973738,958
10,7546,Dakota St & 23rd St,37.754705,-122.396572,1349974696,1882
10,7546,Dakota St & 23rd St,37.754705,-122.396572,1349976578,301
10,7546,Dakota St & 23rd St,37.754705,-122.396572,1349976879,1430
10,7546,Dakota St & 23rd St,37.754705,-122.396572,1349978309,1432
10,7546,Dakota St & 23rd St,37.754705,-122.396572,1349979741,1019
10,7546,Dakota St & 23rd St,37.754705,-122.396572,1349980760,985
10,7546,Dakota St & 23rd St,37.754705,-122.396572,1349981745,483
10,7546,Dakota St & 23rd St,37.754705,-122.396572,1349982228,1815
10,7546,Dakota St & 23rd St,37.754705,-122.396572,1349984043,1423
10,7546,Dakota St & 23rd St,37.754705,-122.396572,1349985466,1033
10,7546,Dakota St & 23rd St,37.754705,-122.396572,1349986499,927
10,7546,Dakota St & 23rd St,37.754705,-122.396572,1349987426,1306
10,7546,Dakota St & 23rd St,37.754705,-122.396572,1349988732,1280
10,7546,Dakota St & 23rd St,37.754705,-122.396572,1349990012,792
10,7546,Dakota St & 23rd St,37.754705,-122.396572,1349990804,1903
10,7546,Dakota St & 23rd St,37.754705,-122.396572,1349992707,1153
10,7546,Dakota St & 23rd St,37.754705,-122.396572,1349993860,631
10,7546,Dakota St & 23rd St,37.754705,-122.396572,1349994491,1800
10,7546,Dakota St & 23rd St,37.754705,-122.396572,1349996291,1643
10,7546,Dakota St & 23rd St,37.754705,-122.396572,1349997934,3042
10,7546,Dakota St & 23rd St,37.754705,-122.396572,1350000976,2079
10,7546,Dakota St & 23rd St,37.754705,-122.396572,1350003055,1128
10,7546,Dakota St & 23rd St,37.754705,-122.396572,1350004183,1261
10,7546,Dakota St & 23rd St,37.754705,-122.396572,1350005444,796
10,7546,Dakota St & 23rd St,37.754705,-122.396572,1350006240,1454
10,7546,Dakota St & 23rd St,37.754705,-122.396572,1350007694,1460
10,7546,Dakota St & 23rd St,37.754705,-122.396572,1350009154,2004
10,6199,Rhode Island St & 25th St  ,37.75211,-122.401467,1349957107,3307
10,6199,Rhode Island St & 25th St  ,37.75211,-122.401467,1349960414,920
10,6199,Rhode Island St & 25th St  ,37.75211,-122.401467,1349961334,40
10,6199,Rhode Island St & 25th St  ,37.75211,-122.401467,1349961374,217
10,6199,Rhode Island St & 25th St  ,37.75211,-122.401467,1349961591,1923
10,6199,Rhode Island St & 25th St  ,37.75211,-122.401467,1349963514,1636
10,6199,Rhode Island St & 25th St  ,37.75211,-122.401467,1349965150,427
10,6199,Rhode Island St & 25th St  ,37.75211,-122.401467,1349965577,214
10,6199,Rhode Island St & 25th St  ,37.75211,-122.401467,1349965791,1409
10,6199,Rhode Island St & 25th St  ,37.75211,-122.401467,1349967200,826
10,6199,Rhode Island St & 25th St  ,37.75211,-122.401467,1349968026,621
10,6199,Rhode Island St & 25th St  ,37.75211,-122.401467,1349968647,1351
10,6199,Rhode Island St & 25th St  ,37.75211,-122.401467,1349969998,1459
10,6199,Rhode Island St & 25th St  ,37.75211,-122.401467,1349971457,577
10,6199,Rhode Island St & 25th St  ,37.75211,-122.401467,1349972034,1810
10,6199,Rhode Island St & 25th St  ,37.75211,-122.401467,1349973844,1121
10,6199,Rhode Island St & 25th St  ,37.75211,-122.401467,1349974965,1745
10,6199,Rhode Island St & 25th St  ,37.75211,-122.401467,1349976710,203
10,6199,Rhode Island St & 25th St  ,37.75211,-122.401467,1349976913,1511
10,6199,Rhode Island St & 25th St  ,37.75211,-122.401467,1349978424,1400
10,6199,Rhode Island St & 25th St  ,37.75211,-122.401467,1349979824,1031
10,6199,Rhode Island St & 25th St  ,37.75211,-122.401467,1349980855,999
10,6199,Rhode Island St & 25th St  ,37.75211,-122.401467,1349981854,504
10,6199,Rhode Island St & 25th St  ,37.75211,-122.401467,1349982358,1947
10,6199,Rhode Island St & 25th St  ,37.75211,-122.401467,1349984305,1236
10,6199,Rhode Island St & 25th St  ,37.75211,-122.401467,1349985541,827
10,6199,Rhode Island St & 25th St  ,37.75211,-122.401467,1349986368,1184
10,6199,Rhode Island St & 25th St  ,37.75211,-122.401467,1349987552,1315
10,6199,Rhode Island St & 25th St  ,37.75211,-122.401467,1349988867,1267
10,6199,Rhode Island St & 25th St  ,37.75211,-122.401467,1349990134,1154
10,6199,Rhode Island St & 25th St  ,37.75211,-122.401467,1349991288,1518
10,6199,Rhode Island St & 25th St  ,37.75211,-122.401467,1349992806,1154
10,6199,Rhode Island St & 25th St  ,37.75211,-122.401467,1349993960,894
10,6199,Rhode Island St & 25th St  ,37.75211,-122.401467,1349994854,1547
10,6199,Rhode Island St & 25th St  ,37.75211,-122.401467,1349996401,1628
10,6199,Rhode Island St & 25th St  ,37.75211,-122.401467,1349998029,3038
10,6199,Rhode Island St & 25th St  ,37.75211,-122.401467,1350001067,2026
10,6199,Rhode Island St & 25th St  ,37.75211,-122.401467,1350003093,1106
10,6199,Rhode Island St & 25th St  ,37.75211,-122.401467,1350004199,1287
10,6199,Rhode Island St & 25th St  ,37.75211,-122.401467,1350005486,800
10,6199,Rhode Island St & 25th St  ,37.75211,-122.401467,1350006286,1499
10,6199,Rhode Island St & 25th St  ,37.75211,-122.401467,1350007785,1416
10,6199,Rhode Island St & 25th St  ,37.75211,-122.401467,1350009201,1996
10,3513,25th St & Wisconsin St  ,37.752162,-122.398293,1349957031,49
10,3513,25th St & Wisconsin St  ,37.752162,-122.398293,1349957080,2851
10,3513,25th St & Wisconsin St  ,37.752162,-122.398293,1349959931,488
10,3513,25th St & Wisconsin St  ,37.752162,-122.398293,1349960419,1048
10,3513,25th St & Wisconsin St  ,37.752162,-122.398293,1349961467,2060
10,3513,25th St & Wisconsin St  ,37.752162,-122.398293,1349963527,1625
10,3513,25th St & Wisconsin St  ,37.752162,-122.398293,1349965152,557
10,3513,25th St & Wisconsin St  ,37.752162,-122.398293,1349965709,67
10,3513,25th St & Wisconsin St  ,37.752162,-122.398293,1349965776,1427
10,3513,25th St & Wisconsin St  ,37.752162,-122.398293,1349967203,864
10,3513,25th St & Wisconsin St  ,37.752162,-122.398293,1349968067,1809
10,3513,25th St & Wisconsin St  ,37.752162,-122.398293,1349969876,923
10,3513,25th St & Wisconsin St  ,37.752162,-122.398293,1349970799,692
10,3513,25th St & Wisconsin St  ,37.752162,-122.398293,1349971491,523
10,3513,25th St & Wisconsin St  ,37.752162,-122.398293,1349972014,1842
10,3513,25th St & Wisconsin St  ,37.752162,-122.398293,1349973856,1035
10,3513,25th St & Wisconsin St  ,37.752162,-122.398293,1349974891,1826
10,3513,25th St & Wisconsin St  ,37.752162,-122.398293,1349976717,198
10,3513,25th St & Wisconsin St  ,37.752162,-122.398293,1349976915,1516
10,3513,25th St & Wisconsin St  ,37.752162,-122.398293,1349978431,1401
10,3513,25th St & Wisconsin St  ,37.752162,-122.398293,1349979832,1010
10,3513,25th St & Wisconsin St  ,37.752162,-122.398293,1349980842,943
10,3513,25th St & Wisconsin St  ,37.752162,-122.398293,1349981785,588
10,3513,25th St & Wisconsin St  ,37.752162,-122.398293,1349982373,1989
10,3513,25th St & Wisconsin St  ,37.752162,-122.398293,1349984362,1190
10,3513,25th St & Wisconsin St  ,37.752162,-122.398293,1349985552,842
10,3513,25th St & Wisconsin St  ,37.752162,-122.398293,1349986394,1164
10,3513,25th St & Wisconsin St  ,37.752162,-122.398293,1349987558,1314
10,3513,25th St & Wisconsin St  ,37.752162,-122.398293,1349988872,1217
10,3513,25th St & Wisconsin St  ,37.752162,-122.398293,1349990089,1226
10,3513,25th St & Wisconsin St  ,37.752162,-122.398293,1349991315,1405
10,3513,25th St & Wisconsin St  ,37.752162,-122.398293,1349992720,1166
10,3513,25th St & Wisconsin St  ,37.752162,-122.398293,1349993886,988
10,3513,25th St & Wisconsin St  ,37.752162,-122.398293,1349994874,1530
10,3513,25th St & Wisconsin St  ,37.752162,-122.398293,1349996404,1622
10,3513,25th St & Wisconsin St  ,37.752162,-122.398293,1349998026,3051
10,3513,25th St & Wisconsin St  ,37.752162,-122.398293,1350001077,2017
10,3513,25th St & Wisconsin St  ,37.752162,-122.398293,1350003094,1108
10,3513,25th St & Wisconsin St  ,37.752162,-122.398293,1350004202,1287
10,3513,25th St & Wisconsin St  ,37.752162,-122.398293,1350005489,800
10,3513,25th St & Wisconsin St  ,37.752162,-122.398293,1350006289,1501
10,3513,25th St & Wisconsin St  ,37.752162,-122.398293,1350007790,1412
10,3513,25th St & Wisconsin St  ,37.752162,-122.398293,1350009202,2003
10,3505,25th St & Connecticut St,37.752242,-122.39662,1349956033,2834
10,3505,25th St & Connecticut St,37.752242,-122.39662,1349958867,1013
10,3505,25th St & Connecticut St,37.752242,-122.39662,1349959880,540
10,3505,25th St & Connecticut St,37.752242,-122.39662,1349960420,1136
10,3505,25th St & Connecticut St,37.752242,-122.39662,1349961556,2002
10,3505,25th St & Connecticut St,37.752242,-122.39662,1349963558,1595
10,3505,25th St & Connecticut St,37.752242,-122.39662,1349965153,432
10,3505,25th St & Connecticut St,37.752242,-122.39662,1349965585,243
10,3505,25th St & Connecticut St,37.752242,-122.39662,1349965828,1375
10,3505,25th St & Connecticut St,37.752242,-122.39662,1349967203,864
10,3505,25th St & Connecticut St,37.752242,-122.39662,1349968067,639
10,3505,25th St & Connecticut St,37.752242,-122.39662,1349968706,1156
10,3505,25th St & Connecticut St,37.752242,-122.39662,1349969862,1629
10,3505,25th St & Connecticut St,37.752242,-122.39662,1349971491,524
10,3505,25th St & Connecticut St,37.752242,-122.39662,1349972015,1842
10,3505,25th St & Connecticut St,37.752242,-122.39662,1349973857,1045
10,3505,25th St & Connecticut St,37.752242,-122.39662,1349974902,1816
10,3505,25th St & Connecticut St,37.752242,-122.39662,1349976718,197
10,3505,25th St & Connecticut St,37.752242,-122.39662,1349976915,1517
10,3505,25th St & Connecticut St,37.752242,-122.39662,1349978432,1422
10,3505,25th St & Connecticut St,37.752242,-122.39662,1349979854,956
10,3505,25th St & Connecticut St,37.752242,-122.39662,1349980810,978
10,3505,25th St & Connecticut St,37.752242,-122.39662,1349981788,586
10,3505,25th St & Connecticut St,37.752242,-122.39662,1349982374,1989
10,3505,25th St & Connecticut St,37.752242,-122.39662,1349984363,1191
10,3505,25th St & Connecticut St,37.752242,-122.39662,1349985554,843
10,3505,25th St & Connecticut St,37.752242,-122.39662,1349986397,1162
10,3505,25th St & Connecticut St,37.752242,-122.39662,1349987559,1314
10,3505,25th St & Connecticut St,37.752242,-122.39662,1349988873,1218
10,3505,25th St & Connecticut St,37.752242,-122.39662,1349990091,1228
10,3505,25th St & Connecticut St,37.752242,-122.39662,1349991319,1404
10,3505,25th St & Connecticut St,37.752242,-122.39662,1349992723,1165
10,3505,25th St & Connecticut St,37.752242,-122.39662,1349993888,988
10,3505,25th St & Connecticut St,37.752242,-122.39662,1349994876,1528
10,3505,25th St & Connecticut St,37.752242,-122.39662,1349996404,1623
10,3505,25th St & Connecticut St,37.752242,-122.39662,1349998027,3050
10,3505,25th St & Connecticut St,37.752242,-122.39662,1350001077,2018
10,3505,25th St & Connecticut St,37.752242,-122.39662,1350003095,1107
10,3505,25th St & Connecticut St,37.752242,-122.39662,1350004202,1287
10,3505,25th St & Connecticut St,37.752242,-122.39662,1350005489,800
10,3505,25th St & Connecticut St,37.752242,-122.39662,1350006289,1501
10,3505,25th St & Connecticut St,37.752242,-122.39662,1350007790,1413
10,3505,25th St & Connecticut St,37.752242,-122.39662,1350009203,2002
10,6962,Wisconsin St & 26th St  ,37.751279,-122.398282,1349956050,1366
10,6962,Wisconsin St & 26th St  ,37.751279,-122.398282,1349957416,2501
10,6962,Wisconsin St & 26th St  ,37.751279,-122.398282,1349959917,478
10,6962,Wisconsin St & 26th St  ,37.751279,-122.398282,1349960395,1405
10,6962,Wisconsin St & 26th St  ,37.751279,-122.398282,1349961800,1782
10,6962,Wisconsin St & 26th St  ,37.751279,-122.398282,1349963582,1591
10,6962,Wisconsin St & 26th St  ,37.751279,-122.398282,1349965173,422
10,6962,Wisconsin St & 26th St  ,37.751279,-122.398282,1349965595,238
10,6962,Wisconsin St & 26th St  ,37.751279,-122.398282,1349965833,1389
10,6962,Wisconsin St & 26th St  ,37.751279,-122.398282,1349967222,877
10,6962,Wisconsin St & 26th St  ,37.751279,-122.398282,1349968099,583
10,6962,Wisconsin St & 26th St  ,37.751279,-122.398282,1349968682,1185
10,6962,Wisconsin St & 26th St  ,37.751279,-122.398282,1349969867,1642
10,6962,Wisconsin St & 26th St  ,37.751279,-122.398282,1349971509,566
10,6962,Wisconsin St & 26th St  ,37.751279,-122.398282,1349972075,1820
10,6962,Wisconsin St & 26th St  ,37.751279,-122.398282,1349973895,1043
10,6962,Wisconsin St & 26th St  ,37.751279,-122.398282,1349974938,1829
10,6962,Wisconsin St & 26th St  ,37.751279,-122.398282,1349976767,160
10,6962,Wisconsin St & 26th St  ,37.751279,-122.398282,1349976927,1345
10,6962,Wisconsin St & 26th St  ,37.751279,-122.398282,1349978272,1607
10,6962,Wisconsin St & 26th St  ,37.751279,-122.398282,1349979879,981
10,6962,Wisconsin St & 26th St  ,37.751279,-122.398282,1349980860,1102
10,6962,Wisconsin St & 26th St  ,37.751279,-122.398282,1349981962,448
10,6962,Wisconsin St & 26th St  ,37.751279,-122.398282,1349982410,1839
10,6962,Wisconsin St & 26th St  ,37.751279,-122.398282,1349984249,1390
10,6962,Wisconsin St & 26th St  ,37.751279,-122.398282,1349985639,1003
10,6962,Wisconsin St & 26th St  ,37.751279,-122.398282,1349986642,958
10,6962,Wisconsin St & 26th St  ,37.751279,-122.398282,1349987600,1187
10,6962,Wisconsin St & 26th St  ,37.751279,-122.398282,1349988787,1399
10,6962,Wisconsin St & 26th St  ,37.751279,-122.398282,1349990186,1314
10,6962,Wisconsin St & 26th St  ,37.751279,-122.398282,1349991500,1420
10,6962,Wisconsin St & 26th St  ,37.751279,-122.398282,1349992920,1093
10,6962,Wisconsin St & 26th St  ,37.751279,-122.398282,1349994013,1039
10,6962,Wisconsin St & 26th St  ,37.751279,-122.398282,1349995052,1373
10,6962,Wisconsin St & 26th St  ,37.751279,-122.398282,1349996425,1645
10,6962,Wisconsin St & 26th St  ,37.751279,-122.398282,1349998070,3016
10,6962,Wisconsin St & 26th St  ,37.751279,-122.398282,1350001086,2023
10,6962,Wisconsin St & 26th St  ,37.751279,-122.398282,1350003109,1110
10,6962,Wisconsin St & 26th St  ,37.751279,-122.398282,1350004219,1316
10,6962,Wisconsin St & 26th St  ,37.751279,-122.398282,1350005535,771
10,6962,Wisconsin St & 26th St  ,37.751279,-122.398282,1350006306,1518
10,6962,Wisconsin St & 26th St  ,37.751279,-122.398282,1350007824,1395
10,6962,Wisconsin St & 26th St  ,37.751279,-122.398282,1350009219,1997
10,6200,Rhode Island St & 26th St  ,37.750727,-122.401342,1349956049,1105
10,6200,Rhode Island St & 26th St  ,37.750727,-122.401342,1349957154,2792
10,6200,Rhode Island St & 26th St  ,37.750727,-122.401342,1349959946,462
10,6200,Rhode Island St & 26th St  ,37.750727,-122.401342,1349960408,1131
10,6200,Rhode Island St & 26th St  ,37.750727,-122.401342,1349961539,2081
10,6200,Rhode Island St & 26th St  ,37.750727,-122.401342,1349963620,1562
10,6200,Rhode Island St & 26th St  ,37.750727,-122.401342,1349965182,436
10,6200,Rhode Island St & 26th St  ,37.750727,-122.401342,1349965618,61
10,6200,Rhode Island St & 26th St  ,37.750727,-122.401342,1349965679,1551
10,6200,Rhode Island St & 26th St  ,37.750727,-122.401342,1349967230,875
10,6200,Rhode Island St & 26th St  ,37.750727,-122.401342,1349968105,585
10,6200,Rhode Island St & 26th St  ,37.750727,-122.401342,1349968690,1198
10,6200,Rhode Island St & 26th St  ,37.750727,-122.401342,1349969888,1635
10,6200,Rhode Island St & 26th St  ,37.750727,-122.401342,1349971523,545
10,6200,Rhode Island St & 26th St  ,37.750727,-122.401342,1349972068,1865
10,6200,Rhode Island St & 26th St  ,37.750727,-122.401342,1349973933,1027
10,6200,Rhode Island St & 26th St  ,37.750727,-122.401342,1349974960,1829
10,6200,Rhode Island St & 26th St  ,37.750727,-122.401342,1349976789,139
10,6200,Rhode Island St & 26th St  ,37.750727,-122.401342,1349976928,1409
10,6200,Rhode Island St & 26th St  ,37.750727,-122.401342,1349978337,1589
10,6200,Rhode Island St & 26th St  ,37.750727,-122.401342,1349979926,956
10,6200,Rhode Island St & 26th St  ,37.750727,-122.401342,1349980882,1101
10,6200,Rhode Island St & 26th St  ,37.750727,-122.401342,1349981983,450
10,6200,Rhode Island St & 26th St  ,37.750727,-122.401342,1349982433,1857
10,6200,Rhode Island St & 26th St  ,37.750727,-122.401342,1349984290,1156
10,6200,Rhode Island St & 26th St  ,37.750727,-122.401342,1349985446,1216
10,6200,Rhode Island St & 26th St  ,37.750727,-122.401342,1349986662,957
10,6200,Rhode Island St & 26th St  ,37.750727,-122.401342,1349987619,1203
10,6200,Rhode Island St & 26th St  ,37.750727,-122.401342,1349988822,1427
10,6200,Rhode Island St & 26th St  ,37.750727,-122.401342,1349990249,1339
10,6200,Rhode Island St & 26th St  ,37.750727,-122.401342,1349991588,1352
10,6200,Rhode Island St & 26th St  ,37.750727,-122.401342,1349992940,1163
10,6200,Rhode Island St & 26th St  ,37.750727,-122.401342,1349994103,908
10,6200,Rhode Island St & 26th St  ,37.750727,-122.401342,1349995011,1424
10,6200,Rhode Island St & 26th St  ,37.750727,-122.401342,1349996435,1558
10,6200,Rhode Island St & 26th St  ,37.750727,-122.401342,1349997993,3045
10,6200,Rhode Island St & 26th St  ,37.750727,-122.401342,1350001038,2067
10,6200,Rhode Island St & 26th St  ,37.750727,-122.401342,1350003105,1132
10,6200,Rhode Island St & 26th St  ,37.750727,-122.401342,1350004237,1301
10,6200,Rhode Island St & 26th St  ,37.750727,-122.401342,1350005538,776
10,6200,Rhode Island St & 26th St  ,37.750727,-122.401342,1350006314,1525
10,6200,Rhode Island St & 26th St  ,37.750727,-122.401342,1350007839,1392
10,6200,Rhode Island St & 26th St  ,37.750727,-122.401342,1350009231,1990
10,3517,26th St & De Haro St  ,37.750753,-122.400024,1349956051,1105
10,3517,26th St & De Haro St  ,37.750753,-122.400024,1349957156,2791
10,3517,26th St & De Haro St  ,37.750753,-122.400024,1349959947,463
10,3517,26th St & De Haro St  ,37.750753,-122.400024,1349960410,1128
10,3517,26th St & De Haro St  ,37.750753,-122.400024,1349961538,2086
10,3517,26th St & De Haro St  ,37.750753,-122.400024,1349963624,1559
10,3517,26th St & De Haro St  ,37.750753,-122.400024,1349965183,435
10,3517,26th St & De Haro St  ,37.750753,-122.400024,1349965618,65
10,3517,26th St & De Haro St  ,37.750753,-122.400024,1349965683,1548
10,3517,26th St & De Haro St  ,37.750753,-122.400024,1349967231,875
10,3517,26th St & De Haro St  ,37.750753,-122.400024,1349968106,534
10,3517,26th St & De Haro St  ,37.750753,-122.400024,1349968640,1248
10,3517,26th St & De Haro St  ,37.750753,-122.400024,1349969888,1636
10,3517,26th St & De Haro St  ,37.750753,-122.400024,1349971524,549
10,3517,26th St & De Haro St  ,37.750753,-122.400024,1349972073,1861
10,3517,26th St & De Haro St  ,37.750753,-122.400024,1349973934,1028
10,3517,26th St & De Haro St  ,37.750753,-122.400024,1349974962,1830
10,3517,26th St & De Haro St  ,37.750753,-122.400024,1349976792,137
10,3517,26th St & De Haro St  ,37.750753,-122.400024,1349976929,1415
10,3517,26th St & De Haro St  ,37.750753,-122.400024,1349978344,1582
10,3517,26th St & De Haro St  ,37.750753,-122.400024,1349979926,959
10,3517,26th St & De Haro St  ,37.750753,-122.400024,1349980885,1101
10,3517,26th St & De Haro St  ,37.750753,-122.400024,1349981986,449
10,3517,26th St & De Haro St  ,37.750753,-122.400024,1349982435,1859
10,3517,26th St & De Haro St  ,37.750753,-122.400024,1349984294,1160
10,3517,26th St & De Haro St  ,37.750753,-122.400024,1349985454,1210
10,3517,26th St & De Haro St  ,37.750753,-122.400024,1349986664,852
10,3517,26th St & De Haro St  ,37.750753,-122.400024,1349987516,1311
10,3517,26th St & De Haro St  ,37.750753,-122.400024,1349988827,1425
10,3517,26th St & De Haro St  ,37.750753,-122.400024,1349990252,1338
10,3517,26th St & De Haro St  ,37.750753,-122.400024,1349991590,1352
10,3517,26th St & De Haro St  ,37.750753,-122.400024,1349992942,1166
10,3517,26th St & De Haro St  ,37.750753,-122.400024,1349994108,906
10,3517,26th St & De Haro St  ,37.750753,-122.400024,1349995014,1422
10,3517,26th St & De Haro St  ,37.750753,-122.400024,1349996436,1561
10,3517,26th St & De Haro St  ,37.750753,-122.400024,1349997997,3043
10,3517,26th St & De Haro St  ,37.750753,-122.400024,1350001040,2066
10,3517,26th St & De Haro St  ,37.750753,-122.400024,1350003106,1131
10,3517,26th St & De Haro St  ,37.750753,-122.400024,1350004237,1301
10,3517,26th St & De Haro St  ,37.750753,-122.400024,1350005538,777
10,3517,26th St & De Haro St  ,37.750753,-122.400024,1350006315,1526
10,3517,26th St & De Haro St  ,37.750753,-122.400024,1350007841,1391
10,3517,26th St & De Haro St  ,37.750753,-122.400024,1350009232,1989
10,6966,Wisconsin St & Madera St  ,37.75577,-122.39872,1349956178,1109
10,6966,Wisconsin St & Madera St  ,37.75577,-122.39872,1349957287,2725
10,6966,Wisconsin St & Madera St  ,37.75577,-122.39872,1349960012,522
10,6966,Wisconsin St & Madera St  ,37.75577,-122.39872,1349960534,1116
10,6966,Wisconsin St & Madera St  ,37.75577,-122.39872,1349961650,2214
10,6966,Wisconsin St & Madera St  ,37.75577,-122.39872,1349963864,1402
10,6966,Wisconsin St & Madera St  ,37.75577,-122.39872,1349965266,394
10,6966,Wisconsin St & Madera St  ,37.75577,-122.39872,1349965660,251
10,6966,Wisconsin St & Madera St  ,37.75577,-122.39872,1349965911,1397
10,6966,Wisconsin St & Madera St  ,37.75577,-122.39872,1349967308,848
10,6966,Wisconsin St & Madera St  ,37.75577,-122.39872,1349968156,676
10,6966,Wisconsin St & Madera St  ,37.75577,-122.39872,1349968832,1100
10,6966,Wisconsin St & Madera St  ,37.75577,-122.39872,1349969932,1597
10,6966,Wisconsin St & Madera St  ,37.75577,-122.39872,1349971529,801
10,6966,Wisconsin St & Madera St  ,37.75577,-122.39872,1349972330,1710
10,6966,Wisconsin St & Madera St  ,37.75577,-122.39872,1349974040,1052
10,6966,Wisconsin St & Madera St  ,37.75577,-122.39872,1349975092,1876
10,6966,Wisconsin St & Madera St  ,37.75577,-122.39872,1349976968,23
10,6966,Wisconsin St & Madera St  ,37.75577,-122.39872,1349976991,1746
10,6966,Wisconsin St & Madera St  ,37.75577,-122.39872,1349978737,1219
10,6966,Wisconsin St & Madera St  ,37.75577,-122.39872,1349979956,1121
10,6966,Wisconsin St & Madera St  ,37.75577,-122.39872,1349981077,1075
10,6966,Wisconsin St & Madera St  ,37.75577,-122.39872,1349982152,411
10,6966,Wisconsin St & Madera St  ,37.75577,-122.39872,1349982563,2065
10,6966,Wisconsin St & Madera St  ,37.75577,-122.39872,1349984628,1390
10,6966,Wisconsin St & Madera St  ,37.75577,-122.39872,1349986018,803
10,6966,Wisconsin St & Madera St  ,37.75577,-122.39872,1349986821,1031
10,6966,Wisconsin St & Madera St  ,37.75577,-122.39872,1349987852,1283
10,6966,Wisconsin St & Madera St  ,37.75577,-122.39872,1349989135,1297
10,6966,Wisconsin St & Madera St  ,37.75577,-122.39872,1349990432,1348
10,6966,Wisconsin St & Madera St  ,37.75577,-122.39872,1349991780,1270
10,6966,Wisconsin St & Madera St  ,37.75577,-122.39872,1349993050,1267
10,6966,Wisconsin St & Madera St  ,37.75577,-122.39872,1349994317,984
10,6966,Wisconsin St & Madera St  ,37.75577,-122.39872,1349995301,1226
10,6966,Wisconsin St & Madera St  ,37.75577,-122.39872,1349996527,1767
10,6966,Wisconsin St & Madera St  ,37.75577,-122.39872,1349998294,2897
10,6966,Wisconsin St & Madera St  ,37.75577,-122.39872,1350001191,2009
10,6966,Wisconsin St & Madera St  ,37.75577,-122.39872,1350003200,1105
10,6966,Wisconsin St & Madera St  ,37.75577,-122.39872,1350004305,1218
10,6966,Wisconsin St & Madera St  ,37.75577,-122.39872,1350005523,863
10,6966,Wisconsin St & Madera St  ,37.75577,-122.39872,1350006386,1596
10,6966,Wisconsin St & Madera St  ,37.75577,-122.39872,1350007982,1333
10,6966,Wisconsin St & Madera St  ,37.75577,-122.39872,1350009315,1968
10,4343,101 Dakota St   ,37.75374,-122.39565,1349956224,1061
10,4343,101 Dakota St   ,37.75374,-122.39565,1349957285,2894
10,4343,101 Dakota St   ,37.75374,-122.39565,1349960179,405
10,4343,101 Dakota St   ,37.75374,-122.39565,1349960584,1202
10,4343,101 Dakota St   ,37.75374,-122.39565,1349961786,2186
10,4343,101 Dakota St   ,37.75374,-122.39565,1349963972,1347
10,4343,101 Dakota St   ,37.75374,-122.39565,1349965319,370
10,4343,101 Dakota St   ,37.75374,-122.39565,1349965689,246
10,4343,101 Dakota St   ,37.75374,-122.39565,1349965935,1421
10,4343,101 Dakota St   ,37.75374,-122.39565,1349967356,835
10,4343,101 Dakota St   ,37.75374,-122.39565,1349968191,683
10,4343,101 Dakota St   ,37.75374,-122.39565,1349968874,1159
10,4343,101 Dakota St   ,37.75374,-122.39565,1349970033,1645
10,4343,101 Dakota St   ,37.75374,-122.39565,1349971678,1685
10,4343,101 Dakota St   ,37.75374,-122.39565,1349973363,723
10,4343,101 Dakota St   ,37.75374,-122.39565,1349974086,1124
10,4343,101 Dakota St   ,37.75374,-122.39565,1349975210,1818
10,4343,101 Dakota St   ,37.75374,-122.39565,1349977028,183
10,4343,101 Dakota St   ,37.75374,-122.39565,1349977211,1701
10,4343,101 Dakota St   ,37.75374,-122.39565,1349978912,1068
10,4343,101 Dakota St   ,37.75374,-122.39565,1349979980,1450
10,4343,101 Dakota St   ,37.75374,-122.39565,1349981430,793
10,4343,101 Dakota St   ,37.75374,-122.39565,1349982223,460
10,4343,101 Dakota St   ,37.75374,-122.39565,1349982683,2066
10,4343,101 Dakota St   ,37.75374,-122.39565,1349984749,1350
10,4343,101 Dakota St   ,37.75374,-122.39565,1349986099,827
10,4343,101 Dakota St   ,37.75374,-122.39565,1349986926,1039
10,4343,101 Dakota St   ,37.75374,-122.39565,1349987965,1432
10,4343,101 Dakota St   ,37.75374,-122.39565,1349989397,1142
10,4343,101 Dakota St   ,37.75374,-122.39565,1349990539,1534
10,4343,101 Dakota St   ,37.75374,-122.39565,1349992073,1012
10,4343,101 Dakota St   ,37.75374,-122.39565,1349993085,1287
10,4343,101 Dakota St   ,37.75374,-122.39565,1349994372,1080
10,4343,101 Dakota St   ,37.75374,-122.39565,1349995452,1250
10,4343,101 Dakota St   ,37.75374,-122.39565,1349996702,1641
10,4343,101 Dakota St   ,37.75374,-122.39565,1349998343,2929
10,4343,101 Dakota St   ,37.75374,-122.39565,1350001272,1981
10,4343,101 Dakota St   ,37.75374,-122.39565,1350003253,1111
10,4343,101 Dakota St   ,37.75374,-122.39565,1350004364,1191
10,4343,101 Dakota St   ,37.75374,-122.39565,1350005555,876
10,4343,101 Dakota St   ,37.75374,-122.39565,1350006431,1640
10,4343,101 Dakota St   ,37.75374,-122.39565,1350008071,1265
10,4343,101 Dakota St   ,37.75374,-122.39565,1350009336,1997
10,4345,Dakota St & 25th St  ,37.75268,-122.39468,1349956256,1136
10,4345,Dakota St & 25th St  ,37.75268,-122.39468,1349957392,2744
10,4345,Dakota St & 25th St  ,37.75268,-122.39468,1349960136,457
10,4345,Dakota St & 25th St  ,37.75268,-122.39468,1349960593,1116
10,4345,Dakota St & 25th St  ,37.75268,-122.39468,1349961709,2279
10,4345,Dakota St & 25th St  ,37.75268,-122.39468,1349963988,1343
10,4345,Dakota St & 25th St  ,37.75268,-122.39468,1349965331,396
10,4345,Dakota St & 25th St  ,37.75268,-122.39468,1349965727,216
10,4345,Dakota St & 25th St  ,37.75268,-122.39468,1349965943,1428
10,4345,Dakota St & 25th St  ,37.75268,-122.39468,1349967371,836
10,4345,Dakota St & 25th St  ,37.75268,-122.39468,1349968207,791
10,4345,Dakota St & 25th St  ,37.75268,-122.39468,1349968998,1053
10,4345,Dakota St & 25th St  ,37.75268,-122.39468,1349970051,1438
10,4345,Dakota St & 25th St  ,37.75268,-122.39468,1349971489,1023
10,4345,Dakota St & 25th St  ,37.75268,-122.39468,1349972512,1582
10,4345,Dakota St & 25th St  ,37.75268,-122.39468,1349974094,1067
10,4345,Dakota St & 25th St  ,37.75268,-122.39468,1349975161,1876
10,4345,Dakota St & 25th St  ,37.75268,-122.39468,1349977037,131
10,4345,Dakota St & 25th St  ,37.75268,-122.39468,1349977168,1678
10,4345,Dakota St & 25th St  ,37.75268,-122.39468,1349978846,1153
10,4345,Dakota St & 25th St  ,37.75268,-122.39468,1349979999,1215
10,4345,Dakota St & 25th St  ,37.75268,-122.39468,1349981214,994
10,4345,Dakota St & 25th St  ,37.75268,-122.39468,1349982208,550
10,4345,Dakota St & 25th St  ,37.75268,-122.39468,1349982758,2048
10,4345,Dakota St & 25th St  ,37.75268,-122.39468,1349984806,1355
10,4345,Dakota St & 25th St  ,37.75268,-122.39468,1349986161,873
10,4345,Dakota St & 25th St  ,37.75268,-122.39468,1349987034,960
10,4345,Dakota St & 25th St  ,37.75268,-122.39468,1349987994,1397
10,4345,Dakota St & 25th St  ,37.75268,-122.39468,1349989391,1167
10,4345,Dakota St & 25th St  ,37.75268,-122.39468,1349990558,1366
10,4345,Dakota St & 25th St  ,37.75268,-122.39468,1349991924,1140
10,4345,Dakota St & 25th St  ,37.75268,-122.39468,1349993064,1320
10,4345,Dakota St & 25th St  ,37.75268,-122.39468,1349994384,1077
10,4345,Dakota St & 25th St  ,37.75268,-122.39468,1349995461,1173
10,4345,Dakota St & 25th St  ,37.75268,-122.39468,1349996634,1723
10,4345,Dakota St & 25th St  ,37.75268,-122.39468,1349998357,2939
10,4345,Dakota St & 25th St  ,37.75268,-122.39468,1350001296,2002
10,4345,Dakota St & 25th St  ,37.75268,-122.39468,1350003298,1085
10,4345,Dakota St & 25th St  ,37.75268,-122.39468,1350004383,1182
10,4345,Dakota St & 25th St  ,37.75268,-122.39468,1350005565,880
10,4345,Dakota St & 25th St  ,37.75268,-122.39468,1350006445,1652
10,4345,Dakota St & 25th St  ,37.75268,-122.39468,1350008097,1258
10,4345,Dakota St & 25th St  ,37.75268,-122.39468,1350009355,1989
10,6957,Wisconsin St & 22nd St  ,37.75719,-122.39886,1349956320,1141
10,6957,Wisconsin St & 22nd St  ,37.75719,-122.39886,1349957461,2837
10,6957,Wisconsin St & 22nd St  ,37.75719,-122.39886,1349960298,351
10,6957,Wisconsin St & 22nd St  ,37.75719,-122.39886,1349960649,1226
10,6957,Wisconsin St & 22nd St  ,37.75719,-122.39886,1349961875,2219
10,6957,Wisconsin St & 22nd St  ,37.75719,-122.39886,1349964094,1320
10,6957,Wisconsin St & 22nd St  ,37.75719,-122.39886,1349965414,597
10,6957,Wisconsin St & 22nd St  ,37.75719,-122.39886,1349966011,408
10,6957,Wisconsin St & 22nd St  ,37.75719,-122.39886,1349966419,1048
10,6957,Wisconsin St & 22nd St  ,37.75719,-122.39886,1349967467,854
10,6957,Wisconsin St & 22nd St  ,37.75719,-122.39886,1349968321,1308
10,6957,Wisconsin St & 22nd St  ,37.75719,-122.39886,1349969629,535
10,6957,Wisconsin St & 22nd St  ,37.75719,-122.39886,1349970164,1742
10,6957,Wisconsin St & 22nd St  ,37.75719,-122.39886,1349971906,777
10,6957,Wisconsin St & 22nd St  ,37.75719,-122.39886,1349972683,1476
10,6957,Wisconsin St & 22nd St  ,37.75719,-122.39886,1349974159,1156
10,6957,Wisconsin St & 22nd St  ,37.75719,-122.39886,1349975315,1794
10,6957,Wisconsin St & 22nd St  ,37.75719,-122.39886,1349977109,248
10,6957,Wisconsin St & 22nd St  ,37.75719,-122.39886,1349977357,1546
10,6957,Wisconsin St & 22nd St  ,37.75719,-122.39886,1349978903,1161
10,6957,Wisconsin St & 22nd St  ,37.75719,-122.39886,1349980064,1266
10,6957,Wisconsin St & 22nd St  ,37.75719,-122.39886,1349981330,1080
10,6957,Wisconsin St & 22nd St  ,37.75719,-122.39886,1349982410,572
10,6957,Wisconsin St & 22nd St  ,37.75719,-122.39886,1349982982,1966
10,6957,Wisconsin St & 22nd St  ,37.75719,-122.39886,1349984948,1271
10,6957,Wisconsin St & 22nd St  ,37.75719,-122.39886,1349986219,1006
10,6957,Wisconsin St & 22nd St  ,37.75719,-122.39886,1349987225,974
10,6957,Wisconsin St & 22nd St  ,37.75719,-122.39886,1349988199,1229
10,6957,Wisconsin St & 22nd St  ,37.75719,-122.39886,1349989428,1312
10,6957,Wisconsin St & 22nd St  ,37.75719,-122.39886,1349990740,1267
10,6957,Wisconsin St & 22nd St  ,37.75719,-122.39886,1349992007,1177
10,6957,Wisconsin St & 22nd St  ,37.75719,-122.39886,1349993184,1591
10,6957,Wisconsin St & 22nd St  ,37.75719,-122.39886,1349994775,834
10,6957,Wisconsin St & 22nd St  ,37.75719,-122.39886,1349995609,1188
10,6957,Wisconsin St & 22nd St  ,37.75719,-122.39886,1349996797,1669
10,6957,Wisconsin St & 22nd St  ,37.75719,-122.39886,1349998466,3120
10,6957,Wisconsin St & 22nd St  ,37.75719,-122.39886,1350001586,1889
10,6957,Wisconsin St & 22nd St  ,37.75719,-122.39886,1350003475,1103
10,6957,Wisconsin St & 22nd St  ,37.75719,-122.39886,1350004578,1050
10,6957,Wisconsin St & 22nd St  ,37.75719,-122.39886,1350005628,906
10,6957,Wisconsin St & 22nd St  ,37.75719,-122.39886,1350006534,1739
10,6957,Wisconsin St & 22nd St  ,37.75719,-122.39886,1350008273,1521
10,6957,Wisconsin St & 22nd St  ,37.75719,-122.39886,1350009794,1642
10,3413,20th St & Arkansas St  ,37.75987,-122.39836,1349956741,735
10,3413,20th St & Arkansas St  ,37.75987,-122.39836,1349957476,2885
10,3413,20th St & Arkansas St  ,37.75987,-122.39836,1349960361,348
10,3413,20th St & Arkansas St  ,37.75987,-122.39836,1349960709,1135
10,3413,20th St & Arkansas St  ,37.75987,-122.39836,1349961844,2403
10,3413,20th St & Arkansas St  ,37.75987,-122.39836,1349964247,1261
10,3413,20th St & Arkansas St  ,37.75987,-122.39836,1349965508,533
10,3413,20th St & Arkansas St  ,37.75987,-122.39836,1349966041,165
10,3413,20th St & Arkansas St  ,37.75987,-122.39836,1349966206,1370
10,3413,20th St & Arkansas St  ,37.75987,-122.39836,1349967576,755
10,3413,20th St & Arkansas St  ,37.75987,-122.39836,1349968331,1249
10,3413,20th St & Arkansas St  ,37.75987,-122.39836,1349969580,599
10,3413,20th St & Arkansas St  ,37.75987,-122.39836,1349970179,1896
10,3413,20th St & Arkansas St  ,37.75987,-122.39836,1349972075,1107
10,3413,20th St & Arkansas St  ,37.75987,-122.39836,1349973182,1000
10,3413,20th St & Arkansas St  ,37.75987,-122.39836,1349974182,1197
10,3413,20th St & Arkansas St  ,37.75987,-122.39836,1349975379,1811
10,3413,20th St & Arkansas St  ,37.75987,-122.39836,1349977190,437
10,3413,20th St & Arkansas St  ,37.75987,-122.39836,1349977627,1468
10,3413,20th St & Arkansas St  ,37.75987,-122.39836,1349979095,1038
10,3413,20th St & Arkansas St  ,37.75987,-122.39836,1349980133,1362
10,3413,20th St & Arkansas St  ,37.75987,-122.39836,1349981495,979
10,3413,20th St & Arkansas St  ,37.75987,-122.39836,1349982474,1050
10,3413,20th St & Arkansas St  ,37.75987,-122.39836,1349983524,1505
10,3413,20th St & Arkansas St  ,37.75987,-122.39836,1349985029,1326
10,3413,20th St & Arkansas St  ,37.75987,-122.39836,1349986355,1147
10,3413,20th St & Arkansas St  ,37.75987,-122.39836,1349987502,946
10,3413,20th St & Arkansas St  ,37.75987,-122.39836,1349988448,1075
10,3413,20th St & Arkansas St  ,37.75987,-122.39836,1349989523,1280
10,3413,20th St & Arkansas St  ,37.75987,-122.39836,1349990803,1360
10,3413,20th St & Arkansas St  ,37.75987,-122.39836,1349992163,1110
10,3413,20th St & Arkansas St  ,37.75987,-122.39836,1349993273,1280
10,3413,20th St & Arkansas St  ,37.75987,-122.39836,1349994553,1005
10,3413,20th St & Arkansas St  ,37.75987,-122.39836,1349995558,1312
10,3413,20th St & Arkansas St  ,37.75987,-122.39836,1349996870,1994
10,3413,20th St & Arkansas St  ,37.75987,-122.39836,1349998864,2695
10,3413,20th St & Arkansas St  ,37.75987,-122.39836,1350001559,2059
10,3413,20th St & Arkansas St  ,37.75987,-122.39836,1350003618,1034
10,3413,20th St & Arkansas St  ,37.75987,-122.39836,1350004652,1075
10,3413,20th St & Arkansas St  ,37.75987,-122.39836,1350005727,909
10,3413,20th St & Arkansas St  ,37.75987,-122.39836,1350006636,1837
10,3413,20th St & Arkansas St  ,37.75987,-122.39836,1350008473,1120
10,3413,20th St & Arkansas St  ,37.75987,-122.39836,1350009593,1963
10,4126,Connecticut St & 18th St  ,37.76243,-122.39741,1349956556,954
10,4126,Connecticut St & 18th St  ,37.76243,-122.39741,1349957510,2849
10,4126,Connecticut St & 18th St  ,37.76243,-122.39741,1349960359,632
10,4126,Connecticut St & 18th St  ,37.76243,-122.39741,1349960991,922
10,4126,Connecticut St & 18th St  ,37.76243,-122.39741,1349961913,2277
10,4126,Connecticut St & 18th St  ,37.76243,-122.39741,1349964190,1373
10,4126,Connecticut St & 18th St  ,37.76243,-122.39741,1349965563,479
10,4126,Connecticut St & 18th St  ,37.76243,-122.39741,1349966042,49
10,4126,Connecticut St & 18th St  ,37.76243,-122.39741,1349966091,1519
10,4126,Connecticut St & 18th St  ,37.76243,-122.39741,1349967610,817
10,4126,Connecticut St & 18th St  ,37.76243,-122.39741,1349968427,959
10,4126,Connecticut St & 18th St  ,37.76243,-122.39741,1349969386,767
10,4126,Connecticut St & 18th St  ,37.76243,-122.39741,1349970153,1981
10,4126,Connecticut St & 18th St  ,37.76243,-122.39741,1349972134,827
10,4126,Connecticut St & 18th St  ,37.76243,-122.39741,1349972961,1398
10,4126,Connecticut St & 18th St  ,37.76243,-122.39741,1349974359,1069
10,4126,Connecticut St & 18th St  ,37.76243,-122.39741,1349975428,1790
10,4126,Connecticut St & 18th St  ,37.76243,-122.39741,1349977218,742
10,4126,Connecticut St & 18th St  ,37.76243,-122.39741,1349977960,1054
10,4126,Connecticut St & 18th St  ,37.76243,-122.39741,1349979014,1163
10,4126,Connecticut St & 18th St  ,37.76243,-122.39741,1349980177,1342
10,4126,Connecticut St & 18th St  ,37.76243,-122.39741,1349981519,966
10,4126,Connecticut St & 18th St  ,37.76243,-122.39741,1349982485,731
10,4126,Connecticut St & 18th St  ,37.76243,-122.39741,1349983216,1752
10,4126,Connecticut St & 18th St  ,37.76243,-122.39741,1349984968,1434
10,4126,Connecticut St & 18th St  ,37.76243,-122.39741,1349986402,794
10,4126,Connecticut St & 18th St  ,37.76243,-122.39741,1349987196,1295
10,4126,Connecticut St & 18th St  ,37.76243,-122.39741,1349988491,1070
10,4126,Connecticut St & 18th St  ,37.76243,-122.39741,1349989561,1562
10,4126,Connecticut St & 18th St  ,37.76243,-122.39741,1349991123,946
10,4126,Connecticut St & 18th St  ,37.76243,-122.39741,1349992069,1265
10,4126,Connecticut St & 18th St  ,37.76243,-122.39741,1349993334,1240
10,4126,Connecticut St & 18th St  ,37.76243,-122.39741,1349994574,1387
10,4126,Connecticut St & 18th St  ,37.76243,-122.39741,1349995961,836
10,4126,Connecticut St & 18th St  ,37.76243,-122.39741,1349996797,1779
10,4126,Connecticut St & 18th St  ,37.76243,-122.39741,1349998576,2976
10,4126,Connecticut St & 18th St  ,37.76243,-122.39741,1350001552,2059
10,4126,Connecticut St & 18th St  ,37.76243,-122.39741,1350003611,1110
10,4126,Connecticut St & 18th St  ,37.76243,-122.39741,1350004721,1036
10,4126,Connecticut St & 18th St  ,37.76243,-122.39741,1350005757,910
10,4126,Connecticut St & 18th St  ,37.76243,-122.39741,1350006667,1868
10,4126,Connecticut St & 18th St  ,37.76243,-122.39741,1350008535,1004
10,4126,Connecticut St & 18th St  ,37.76243,-122.39741,1350009539,2007
10,4127,Connecticut St & 19th St  ,37.76115,-122.39733,1349956608,1083
10,4127,Connecticut St & 19th St  ,37.76115,-122.39733,1349957691,2668
10,4127,Connecticut St & 19th St  ,37.76115,-122.39733,1349960359,983
10,4127,Connecticut St & 19th St  ,37.76115,-122.39733,1349961342,643
10,4127,Connecticut St & 19th St  ,37.76115,-122.39733,1349961985,2256
10,4127,Connecticut St & 19th St  ,37.76115,-122.39733,1349964241,1320
10,4127,Connecticut St & 19th St  ,37.76115,-122.39733,1349965561,424
10,4127,Connecticut St & 19th St  ,37.76115,-122.39733,1349965985,170
10,4127,Connecticut St & 19th St  ,37.76115,-122.39733,1349966155,1455
10,4127,Connecticut St & 19th St  ,37.76115,-122.39733,1349967610,784
10,4127,Connecticut St & 19th St  ,37.76115,-122.39733,1349968394,896
10,4127,Connecticut St & 19th St  ,37.76115,-122.39733,1349969290,825
10,4127,Connecticut St & 19th St  ,37.76115,-122.39733,1349970115,1917
10,4127,Connecticut St & 19th St  ,37.76115,-122.39733,1349972032,948
10,4127,Connecticut St & 19th St  ,37.76115,-122.39733,1349972980,1299
10,4127,Connecticut St & 19th St  ,37.76115,-122.39733,1349974279,1156
10,4127,Connecticut St & 19th St  ,37.76115,-122.39733,1349975435,1783
10,4127,Connecticut St & 19th St  ,37.76115,-122.39733,1349977218,854
10,4127,Connecticut St & 19th St  ,37.76115,-122.39733,1349978072,873
10,4127,Connecticut St & 19th St  ,37.76115,-122.39733,1349978945,1274
10,4127,Connecticut St & 19th St  ,37.76115,-122.39733,1349980219,1234
10,4127,Connecticut St & 19th St  ,37.76115,-122.39733,1349981453,1005
10,4127,Connecticut St & 19th St  ,37.76115,-122.39733,1349982458,967
10,4127,Connecticut St & 19th St  ,37.76115,-122.39733,1349983425,1559
10,4127,Connecticut St & 19th St  ,37.76115,-122.39733,1349984984,1296
10,4127,Connecticut St & 19th St  ,37.76115,-122.39733,1349986280,873
10,4127,Connecticut St & 19th St  ,37.76115,-122.39733,1349987153,1409
10,4127,Connecticut St & 19th St  ,37.76115,-122.39733,1349988562,963
10,4127,Connecticut St & 19th St  ,37.76115,-122.39733,1349989525,1215
10,4127,Connecticut St & 19th St  ,37.76115,-122.39733,1349990740,1346
10,4127,Connecticut St & 19th St  ,37.76115,-122.39733,1349992086,1266
10,4127,Connecticut St & 19th St  ,37.76115,-122.39733,1349993352,1487
10,4127,Connecticut St & 19th St  ,37.76115,-122.39733,1349994839,779
10,4127,Connecticut St & 19th St  ,37.76115,-122.39733,1349995618,1218
10,4127,Connecticut St & 19th St  ,37.76115,-122.39733,1349996836,1798
10,4127,Connecticut St & 19th St  ,37.76115,-122.39733,1349998634,3295
10,4127,Connecticut St & 19th St  ,37.76115,-122.39733,1350001929,1696
10,4127,Connecticut St & 19th St  ,37.76115,-122.39733,1350003625,1025
10,4127,Connecticut St & 19th St  ,37.76115,-122.39733,1350004650,1104
10,4127,Connecticut St & 19th St  ,37.76115,-122.39733,1350005754,913
10,4127,Connecticut St & 19th St  ,37.76115,-122.39733,1350006667,1868
10,4127,Connecticut St & 19th St  ,37.76115,-122.39733,1350008535,1119
10,4127,Connecticut St & 19th St  ,37.76115,-122.39733,1350009654,1952
10,4123,Connecticut St & 17th St  ,37.76498,-122.397661,1349956587,948
10,4123,Connecticut St & 17th St  ,37.76498,-122.397661,1349957535,2908
10,4123,Connecticut St & 17th St  ,37.76498,-122.397661,1349960443,757
10,4123,Connecticut St & 17th St  ,37.76498,-122.397661,1349961200,808
10,4123,Connecticut St & 17th St  ,37.76498,-122.397661,1349962008,2712
10,4123,Connecticut St & 17th St  ,37.76498,-122.397661,1349964720,955
10,4123,Connecticut St & 17th St  ,37.76498,-122.397661,1349965675,487
10,4123,Connecticut St & 17th St  ,37.76498,-122.397661,1349966162,244
10,4123,Connecticut St & 17th St  ,37.76498,-122.397661,1349966406,1314
10,4123,Connecticut St & 17th St  ,37.76498,-122.397661,1349967720,759
10,4123,Connecticut St & 17th St  ,37.76498,-122.397661,1349968479,923
10,4123,Connecticut St & 17th St  ,37.76498,-122.397661,1349969402,1057
10,4123,Connecticut St & 17th St  ,37.76498,-122.397661,1349970459,1682
10,4123,Connecticut St & 17th St  ,37.76498,-122.397661,1349972141,824
10,4123,Connecticut St & 17th St  ,37.76498,-122.397661,1349972965,2761
10,4123,Connecticut St & 17th St  ,37.76498,-122.397661,1349975726,153
10,4123,Connecticut St & 17th St  ,37.76498,-122.397661,1349975879,1422
10,4123,Connecticut St & 17th St  ,37.76498,-122.397661,1349977301,419
10,4123,Connecticut St & 17th St  ,37.76498,-122.397661,1349977720,1607
10,4123,Connecticut St & 17th St  ,37.76498,-122.397661,1349979327,1010
10,4123,Connecticut St & 17th St  ,37.76498,-122.397661,1349980337,1193
10,4123,Connecticut St & 17th St  ,37.76498,-122.397661,1349981530,1013
10,4123,Connecticut St & 17th St  ,37.76498,-122.397661,1349982543,1197
10,4123,Connecticut St & 17th St  ,37.76498,-122.397661,1349983740,1420
10,4123,Connecticut St & 17th St  ,37.76498,-122.397661,1349985160,1177
10,4123,Connecticut St & 17th St  ,37.76498,-122.397661,1349986337,961
10,4123,Connecticut St & 17th St  ,37.76498,-122.397661,1349987298,1868
10,4123,Connecticut St & 17th St  ,37.76498,-122.397661,1349989166,569
10,4123,Connecticut St & 17th St  ,37.76498,-122.397661,1349989735,1142
10,4123,Connecticut St & 17th St  ,37.76498,-122.397661,1349990877,1252
10,4123,Connecticut St & 17th St  ,37.76498,-122.397661,1349992129,1503
10,4123,Connecticut St & 17th St  ,37.76498,-122.397661,1349993632,1061
10,4123,Connecticut St & 17th St  ,37.76498,-122.397661,1349994693,1306
10,4123,Connecticut St & 17th St  ,37.76498,-122.397661,1349995999,947
10,4123,Connecticut St & 17th St  ,37.76498,-122.397661,1349996946,2815
10,4123,Connecticut St & 17th St  ,37.76498,-122.397661,1349999761,1911
10,4123,Connecticut St & 17th St  ,37.76498,-122.397661,1350001672,2189
10,4123,Connecticut St & 17th St  ,37.76498,-122.397661,1350003861,878
10,4123,Connecticut St & 17th St  ,37.76498,-122.397661,1350004739,1130
10,4123,Connecticut St & 17th St  ,37.76498,-122.397661,1350005869,898
10,4123,Connecticut St & 17th St  ,37.76498,-122.397661,1350006767,1965
10,4123,Connecticut St & 17th St  ,37.76498,-122.397661,1350008732,1051
10,4123,Connecticut St & 17th St  ,37.76498,-122.397661,1350009783,1942
10,3319,17th St & Wisconsin St  ,37.764991,-122.399982,1349956690,895
10,3319,17th St & Wisconsin St  ,37.764991,-122.399982,1349957585,2866
10,3319,17th St & Wisconsin St  ,37.764991,-122.399982,1349960451,759
10,3319,17th St & Wisconsin St  ,37.764991,-122.399982,1349961210,799
10,3319,17th St & Wisconsin St  ,37.764991,-122.399982,1349962009,2362
10,3319,17th St & Wisconsin St  ,37.764991,-122.399982,1349964371,1350
10,3319,17th St & Wisconsin St  ,37.764991,-122.399982,1349965721,500
10,3319,17th St & Wisconsin St  ,37.764991,-122.399982,1349966221,200
10,3319,17th St & Wisconsin St  ,37.764991,-122.399982,1349966421,1385
10,3319,17th St & Wisconsin St  ,37.764991,-122.399982,1349967806,741
10,3319,17th St & Wisconsin St  ,37.764991,-122.399982,1349968547,774
10,3319,17th St & Wisconsin St  ,37.764991,-122.399982,1349969321,1185
10,3319,17th St & Wisconsin St  ,37.764991,-122.399982,1349970506,1719
10,3319,17th St & Wisconsin St  ,37.764991,-122.399982,1349972225,903
10,3319,17th St & Wisconsin St  ,37.764991,-122.399982,1349973128,1359
10,3319,17th St & Wisconsin St  ,37.764991,-122.399982,1349974487,1291
10,3319,17th St & Wisconsin St  ,37.764991,-122.399982,1349975778,1560
10,3319,17th St & Wisconsin St  ,37.764991,-122.399982,1349977338,462
10,3319,17th St & Wisconsin St  ,37.764991,-122.399982,1349977800,1408
10,3319,17th St & Wisconsin St  ,37.764991,-122.399982,1349979208,1240
10,3319,17th St & Wisconsin St  ,37.764991,-122.399982,1349980448,1194
10,3319,17th St & Wisconsin St  ,37.764991,-122.399982,1349981642,1037
10,3319,17th St & Wisconsin St  ,37.764991,-122.399982,1349982679,927
10,3319,17th St & Wisconsin St  ,37.764991,-122.399982,1349983606,1452
10,3319,17th St & Wisconsin St  ,37.764991,-122.399982,1349985058,1749
10,3319,17th St & Wisconsin St  ,37.764991,-122.399982,1349986807,758
10,3319,17th St & Wisconsin St  ,37.764991,-122.399982,1349987565,1096
10,3319,17th St & Wisconsin St  ,37.764991,-122.399982,1349988661,1573
10,3319,17th St & Wisconsin St  ,37.764991,-122.399982,1349990234,789
10,3319,17th St & Wisconsin St  ,37.764991,-122.399982,1349991023,1775
10,3319,17th St & Wisconsin St  ,37.764991,-122.399982,1349992798,835
10,3319,17th St & Wisconsin St  ,37.764991,-122.399982,1349993633,1346
10,3319,17th St & Wisconsin St  ,37.764991,-122.399982,1349994979,867
10,3319,17th St & Wisconsin St  ,37.764991,-122.399982,1349995846,1654
10,3319,17th St & Wisconsin St  ,37.764991,-122.399982,1349997500,1415
10,3319,17th St & Wisconsin St  ,37.764991,-122.399982,1349998915,2912
10,3319,17th St & Wisconsin St  ,37.764991,-122.399982,1350001827,2014
10,3319,17th St & Wisconsin St  ,37.764991,-122.399982,1350003841,938
10,3319,17th St & Wisconsin St  ,37.764991,-122.399982,1350004779,1065
10,3319,17th St & Wisconsin St  ,37.764991,-122.399982,1350005844,960
10,3319,17th St & Wisconsin St  ,37.764991,-122.399982,1350006804,2000
10,3319,17th St & Wisconsin St  ,37.764991,-122.399982,1350008804,1052
10,3319,17th St & Wisconsin St  ,37.764991,-122.399982,1350009856,1886
10,4350,De Haro St & 16th St  ,37.766056,-122.40163,1349956643,1125
10,4350,De Haro St & 16th St  ,37.766056,-122.40163,1349957768,2730
10,4350,De Haro St & 16th St  ,37.766056,-122.40163,1349960498,754
10,4350,De Haro St & 16th St  ,37.766056,-122.40163,1349961252,911
10,4350,De Haro St & 16th St  ,37.766056,-122.40163,1349962163,2423
10,4350,De Haro St & 16th St  ,37.766056,-122.40163,1349964586,1166
10,4350,De Haro St & 16th St  ,37.766056,-122.40163,1349965752,557
10,4350,De Haro St & 16th St  ,37.766056,-122.40163,1349966309,203
10,4350,De Haro St & 16th St  ,37.766056,-122.40163,1349966512,1355
10,4350,De Haro St & 16th St  ,37.766056,-122.40163,1349967867,653
10,4350,De Haro St & 16th St  ,37.766056,-122.40163,1349968520,927
10,4350,De Haro St & 16th St  ,37.766056,-122.40163,1349969447,1132
10,4350,De Haro St & 16th St  ,37.766056,-122.40163,1349970579,1850
10,4350,De Haro St & 16th St  ,37.766056,-122.40163,1349972429,669
10,4350,De Haro St & 16th St  ,37.766056,-122.40163,1349973098,1588
10,4350,De Haro St & 16th St  ,37.766056,-122.40163,1349974686,1020
10,4350,De Haro St & 16th St  ,37.766056,-122.40163,1349975706,1688
10,4350,De Haro St & 16th St  ,37.766056,-122.40163,1349977394,431
10,4350,De Haro St & 16th St  ,37.766056,-122.40163,1349977825,1374
10,4350,De Haro St & 16th St  ,37.766056,-122.40163,1349979199,1387
10,4350,De Haro St & 16th St  ,37.766056,-122.40163,1349980586,985
10,4350,De Haro St & 16th St  ,37.766056,-122.40163,1349981571,1115
10,4350,De Haro St & 16th St  ,37.766056,-122.40163,1349982686,1127
10,4350,De Haro St & 16th St  ,37.766056,-122.40163,1349983813,1393
10,4350,De Haro St & 16th St  ,37.766056,-122.40163,1349985206,1468
10,4350,De Haro St & 16th St  ,37.766056,-122.40163,1349986674,846
10,4350,De Haro St & 16th St  ,37.766056,-122.40163,1349987520,1572
10,4350,De Haro St & 16th St  ,37.766056,-122.40163,1349989092,723
10,4350,De Haro St & 16th St  ,37.766056,-122.40163,1349989815,1223
10,4350,De Haro St & 16th St  ,37.766056,-122.40163,1349991038,1215
10,4350,De Haro St & 16th St  ,37.766056,-122.40163,1349992253,1426
10,4350,De Haro St & 16th St  ,37.766056,-122.40163,1349993679,1040
10,4350,De Haro St & 16th St  ,37.766056,-122.40163,1349994719,1028
10,4350,De Haro St & 16th St  ,37.766056,-122.40163,1349995747,1331
10,4350,De Haro St & 16th St  ,37.766056,-122.40163,1349997078,2009
10,4350,De Haro St & 16th St  ,37.766056,-122.40163,1349999087,2868
10,4350,De Haro St & 16th St  ,37.766056,-122.40163,1350001955,1868
10,4350,De Haro St & 16th St  ,37.766056,-122.40163,1350003823,987
10,4350,De Haro St & 16th St  ,37.766056,-122.40163,1350004810,1199
10,4350,De Haro St & 16th St  ,37.766056,-122.40163,1350006009,844
10,4350,De Haro St & 16th St  ,37.766056,-122.40163,1350006853,2049
10,4350,De Haro St & 16th St  ,37.766056,-122.40163,1350008902,1019
10,4350,De Haro St & 16th St  ,37.766056,-122.40163,1350009921,1988
10,6202,Rhode Island St & Alameda St  ,37.768573,-122.402843,1349956700,1840
10,6202,Rhode Island St & Alameda St  ,37.768573,-122.402843,1349958540,2448
10,6202,Rhode Island St & Alameda St  ,37.768573,-122.402843,1349960988,1480
10,6202,Rhode Island St & Alameda St  ,37.768573,-122.402843,1349962468,593
10,6202,Rhode Island St & Alameda St  ,37.768573,-122.402843,1349963061,2250
10,6202,Rhode Island St & Alameda St  ,37.768573,-122.402843,1349965311,455
10,6202,Rhode Island St & Alameda St  ,37.768573,-122.402843,1349965766,617
10,6202,Rhode Island St & Alameda St  ,37.768573,-122.402843,1349966383,15
10,6202,Rhode Island St & Alameda St  ,37.768573,-122.402843,1349966398,1443
10,6202,Rhode Island St & Alameda St  ,37.768573,-122.402843,1349967841,680
10,6202,Rhode Island St & Alameda St  ,37.768573,-122.402843,1349968521,1022
10,6202,Rhode Island St & Alameda St  ,37.768573,-122.402843,1349969543,1040
10,6202,Rhode Island St & Alameda St  ,37.768573,-122.402843,1349970583,1628
10,6202,Rhode Island St & Alameda St  ,37.768573,-122.402843,1349972211,811
10,6202,Rhode Island St & Alameda St  ,37.768573,-122.402843,1349973022,1481
10,6202,Rhode Island St & Alameda St  ,37.768573,-122.402843,1349974503,1230
10,6202,Rhode Island St & Alameda St  ,37.768573,-122.402843,1349975733,1679
10,6202,Rhode Island St & Alameda St  ,37.768573,-122.402843,1349977412,625
10,6202,Rhode Island St & Alameda St  ,37.768573,-122.402843,1349978037,1521
10,6202,Rhode Island St & Alameda St  ,37.768573,-122.402843,1349979558,1113
10,6202,Rhode Island St & Alameda St  ,37.768573,-122.402843,1349980671,1157
10,6202,Rhode Island St & Alameda St  ,37.768573,-122.402843,1349981828,927
10,6202,Rhode Island St & Alameda St  ,37.768573,-122.402843,1349982755,799
10,6202,Rhode Island St & Alameda St  ,37.768573,-122.402843,1349983554,1641
10,6202,Rhode Island St & Alameda St  ,37.768573,-122.402843,1349985195,1384
10,6202,Rhode Island St & Alameda St  ,37.768573,-122.402843,1349986579,887
10,6202,Rhode Island St & Alameda St  ,37.768573,-122.402843,1349987466,1333
10,6202,Rhode Island St & Alameda St  ,37.768573,-122.402843,1349988799,922
10,6202,Rhode Island St & Alameda St  ,37.768573,-122.402843,1349989721,1311
10,6202,Rhode Island St & Alameda St  ,37.768573,-122.402843,1349991032,1201
10,6202,Rhode Island St & Alameda St  ,37.768573,-122.402843,1349992233,1483
10,6202,Rhode Island St & Alameda St  ,37.768573,-122.402843,1349993716,1143
10,6202,Rhode Island St & Alameda St  ,37.768573,-122.402843,1349994859,994
10,6202,Rhode Island St & Alameda St  ,37.768573,-122.402843,1349995853,1438
10,6202,Rhode Island St & Alameda St  ,37.768573,-122.402843,1349997291,1590
10,6202,Rhode Island St & Alameda St  ,37.768573,-122.402843,1349998881,3056
10,6202,Rhode Island St & Alameda St  ,37.768573,-122.402843,1350001937,2392
10,6202,Rhode Island St & Alameda St  ,37.768573,-122.402843,1350004329,551
10,6202,Rhode Island St & Alameda St  ,37.768573,-122.402843,1350004880,1149
10,6202,Rhode Island St & Alameda St  ,37.768573,-122.402843,1350006029,840
10,6202,Rhode Island St & Alameda St  ,37.768573,-122.402843,1350006869,2063
10,6202,Rhode Island St & Alameda St  ,37.768573,-122.402843,1350008932,901
10,6202,Rhode Island St & Alameda St  ,37.768573,-122.402843,1350009833,2063
10,6188,Rhode Island St & 15th St  ,37.767315,-122.402729,1349956650,1068
10,6188,Rhode Island St & 15th St  ,37.767315,-122.402729,1349957718,2865
10,6188,Rhode Island St & 15th St  ,37.767315,-122.402729,1349960583,638
10,6188,Rhode Island St & 15th St  ,37.767315,-122.402729,1349961221,949
10,6188,Rhode Island St & 15th St  ,37.767315,-122.402729,1349962170,2494
10,6188,Rhode Island St & 15th St  ,37.767315,-122.402729,1349964664,1112
10,6188,Rhode Island St & 15th St  ,37.767315,-122.402729,1349965776,609
10,6188,Rhode Island St & 15th St  ,37.767315,-122.402729,1349966385,57
10,6188,Rhode Island St & 15th St  ,37.767315,-122.402729,1349966442,1426
10,6188,Rhode Island St & 15th St  ,37.767315,-122.402729,1349967868,654
10,6188,Rhode Island St & 15th St  ,37.767315,-122.402729,1349968522,948
10,6188,Rhode Island St & 15th St  ,37.767315,-122.402729,1349969470,1164
10,6188,Rhode Island St & 15th St  ,37.767315,-122.402729,1349970634,1709
10,6188,Rhode Island St & 15th St  ,37.767315,-122.402729,1349972343,840
10,6188,Rhode Island St & 15th St  ,37.767315,-122.402729,1349973183,1497
10,6188,Rhode Island St & 15th St  ,37.767315,-122.402729,1349974680,1043
10,6188,Rhode Island St & 15th St  ,37.767315,-122.402729,1349975723,1698
10,6188,Rhode Island St & 15th St  ,37.767315,-122.402729,1349977421,470
10,6188,Rhode Island St & 15th St  ,37.767315,-122.402729,1349977891,1260
10,6188,Rhode Island St & 15th St  ,37.767315,-122.402729,1349979151,1495
10,6188,Rhode Island St & 15th St  ,37.767315,-122.402729,1349980646,1253
10,6188,Rhode Island St & 15th St  ,37.767315,-122.402729,1349981899,1145
10,6188,Rhode Island St & 15th St  ,37.767315,-122.402729,1349983044,673
10,6188,Rhode Island St & 15th St  ,37.767315,-122.402729,1349983717,2640
10,6188,Rhode Island St & 15th St  ,37.767315,-122.402729,1349986357,241
10,6188,Rhode Island St & 15th St  ,37.767315,-122.402729,1349986598,866
10,6188,Rhode Island St & 15th St  ,37.767315,-122.402729,1349987464,1213
10,6188,Rhode Island St & 15th St  ,37.767315,-122.402729,1349988677,1275
10,6188,Rhode Island St & 15th St  ,37.767315,-122.402729,1349989952,1016
10,6188,Rhode Island St & 15th St  ,37.767315,-122.402729,1349990968,1479
10,6188,Rhode Island St & 15th St  ,37.767315,-122.402729,1349992447,1173
10,6188,Rhode Island St & 15th St  ,37.767315,-122.402729,1349993620,1242
10,6188,Rhode Island St & 15th St  ,37.767315,-122.402729,1349994862,1012
10,6188,Rhode Island St & 15th St  ,37.767315,-122.402729,1349995874,1365
10,6188,Rhode Island St & 15th St  ,37.767315,-122.402729,1349997239,1729
10,6188,Rhode Island St & 15th St  ,37.767315,-122.402729,1349998968,2946
10,6188,Rhode Island St & 15th St  ,37.767315,-122.402729,1350001914,1973
10,6188,Rhode Island St & 15th St  ,37.767315,-122.402729,1350003887,995
10,6188,Rhode Island St & 15th St  ,37.767315,-122.402729,1350004882,1147
10,6188,Rhode Island St & 15th St  ,37.767315,-122.402729,1350006029,840
10,6188,Rhode Island St & 15th St  ,37.767315,-122.402729,1350006869,2064
10,6188,Rhode Island St & 15th St  ,37.767315,-122.402729,1350008933,1065
10,6188,Rhode Island St & 15th St  ,37.767315,-122.402729,1350009998,1843
10,6189,Rhode Island St & 16th St  ,37.766324,-122.402627,1349956713,962
10,6189,Rhode Island St & 16th St  ,37.766324,-122.402627,1349957675,2936
10,6189,Rhode Island St & 16th St  ,37.766324,-122.402627,1349960611,626
10,6189,Rhode Island St & 16th St  ,37.766324,-122.402627,1349961237,935
10,6189,Rhode Island St & 16th St  ,37.766324,-122.402627,1349962172,2522
10,6189,Rhode Island St & 16th St  ,37.766324,-122.402627,1349964694,1085
10,6189,Rhode Island St & 16th St  ,37.766324,-122.402627,1349965779,604
10,6189,Rhode Island St & 16th St  ,37.766324,-122.402627,1349966383,59
10,6189,Rhode Island St & 16th St  ,37.766324,-122.402627,1349966442,1434
10,6189,Rhode Island St & 16th St  ,37.766324,-122.402627,1349967876,646
10,6189,Rhode Island St & 16th St  ,37.766324,-122.402627,1349968522,1014
10,6189,Rhode Island St & 16th St  ,37.766324,-122.402627,1349969536,1487
10,6189,Rhode Island St & 16th St  ,37.766324,-122.402627,1349971023,1254
10,6189,Rhode Island St & 16th St  ,37.766324,-122.402627,1349972277,822
10,6189,Rhode Island St & 16th St  ,37.766324,-122.402627,1349973099,1479
10,6189,Rhode Island St & 16th St  ,37.766324,-122.402627,1349974578,1145
10,6189,Rhode Island St & 16th St  ,37.766324,-122.402627,1349975723,1698
10,6189,Rhode Island St & 16th St  ,37.766324,-122.402627,1349977421,434
10,6189,Rhode Island St & 16th St  ,37.766324,-122.402627,1349977855,1634
10,6189,Rhode Island St & 16th St  ,37.766324,-122.402627,1349979489,1174
10,6189,Rhode Island St & 16th St  ,37.766324,-122.402627,1349980663,1024
10,6189,Rhode Island St & 16th St  ,37.766324,-122.402627,1349981687,1086
10,6189,Rhode Island St & 16th St  ,37.766324,-122.402627,1349982773,848
10,6189,Rhode Island St & 16th St  ,37.766324,-122.402627,1349983621,1604
10,6189,Rhode Island St & 16th St  ,37.766324,-122.402627,1349985225,1416
10,6189,Rhode Island St & 16th St  ,37.766324,-122.402627,1349986641,687
10,6189,Rhode Island St & 16th St  ,37.766324,-122.402627,1349987328,1804
10,6189,Rhode Island St & 16th St  ,37.766324,-122.402627,1349989132,721
10,6189,Rhode Island St & 16th St  ,37.766324,-122.402627,1349989853,1331
10,6189,Rhode Island St & 16th St  ,37.766324,-122.402627,1349991184,1236
10,6189,Rhode Island St & 16th St  ,37.766324,-122.402627,1349992420,1212
10,6189,Rhode Island St & 16th St  ,37.766324,-122.402627,1349993632,1224
10,6189,Rhode Island St & 16th St  ,37.766324,-122.402627,1349994856,1012
10,6189,Rhode Island St & 16th St  ,37.766324,-122.402627,1349995868,1289
10,6189,Rhode Island St & 16th St  ,37.766324,-122.402627,1349997157,1750
10,6189,Rhode Island St & 16th St  ,37.766324,-122.402627,1349998907,3008
10,6189,Rhode Island St & 16th St  ,37.766324,-122.402627,1350001915,1988
10,6189,Rhode Island St & 16th St  ,37.766324,-122.402627,1350003903,981
10,6189,Rhode Island St & 16th St  ,37.766324,-122.402627,1350004884,1145
10,6189,Rhode Island St & 16th St  ,37.766324,-122.402627,1350006029,840
10,6189,Rhode Island St & 16th St  ,37.766324,-122.402627,1350006869,2064
10,6189,Rhode Island St & 16th St  ,37.766324,-122.402627,1350008933,942
10,6189,Rhode Island St & 16th St  ,37.766324,-122.402627,1350009875,1989
10,4438,Division St & Townsend St  ,37.769894,-122.403301,1349956656,1078
10,4438,Division St & Townsend St  ,37.769894,-122.403301,1349957734,2878
10,4438,Division St & Townsend St  ,37.769894,-122.403301,1349960612,635
10,4438,Division St & Townsend St  ,37.769894,-122.403301,1349961247,1023
10,4438,Division St & Townsend St  ,37.769894,-122.403301,1349962270,2348
10,4438,Division St & Townsend St  ,37.769894,-122.403301,1349964618,1163
10,4438,Division St & Townsend St  ,37.769894,-122.403301,1349965781,603
10,4438,Division St & Townsend St  ,37.769894,-122.403301,1349966384,60
10,4438,Division St & Townsend St  ,37.769894,-122.403301,1349966444,1456
10,4438,Division St & Townsend St  ,37.769894,-122.403301,1349967900,680
10,4438,Division St & Townsend St  ,37.769894,-122.403301,1349968580,865
10,4438,Division St & Townsend St  ,37.769894,-122.403301,1349969445,1210
10,4438,Division St & Townsend St  ,37.769894,-122.403301,1349970655,1635
10,4438,Division St & Townsend St  ,37.769894,-122.403301,1349972290,1324
10,4438,Division St & Townsend St  ,37.769894,-122.403301,1349973614,978
10,4438,Division St & Townsend St  ,37.769894,-122.403301,1349974592,1082
10,4438,Division St & Townsend St  ,37.769894,-122.403301,1349975674,1749
10,4438,Division St & Townsend St  ,37.769894,-122.403301,1349977423,467
10,4438,Division St & Townsend St  ,37.769894,-122.403301,1349977890,1661
10,4438,Division St & Townsend St  ,37.769894,-122.403301,1349979551,1114
10,4438,Division St & Townsend St  ,37.769894,-122.403301,1349980665,1009
10,4438,Division St & Townsend St  ,37.769894,-122.403301,1349981674,1052
10,4438,Division St & Townsend St  ,37.769894,-122.403301,1349982726,893
10,4438,Division St & Townsend St  ,37.769894,-122.403301,1349983619,1607
10,4438,Division St & Townsend St  ,37.769894,-122.403301,1349985226,1434
10,4438,Division St & Townsend St  ,37.769894,-122.403301,1349986660,671
10,4438,Division St & Townsend St  ,37.769894,-122.403301,1349987331,1462
10,4438,Division St & Townsend St  ,37.769894,-122.403301,1349988793,1562
10,4438,Division St & Townsend St  ,37.769894,-122.403301,1349990355,643
10,4438,Division St & Townsend St  ,37.769894,-122.403301,1349990998,1455
10,4438,Division St & Townsend St  ,37.769894,-122.403301,1349992453,1354
10,4438,Division St & Townsend St  ,37.769894,-122.403301,1349993807,1064
10,4438,Division St & Townsend St  ,37.769894,-122.403301,1349994871,1144
10,4438,Division St & Townsend St  ,37.769894,-122.403301,1349996015,1136
10,4438,Division St & Townsend St  ,37.769894,-122.403301,1349997151,1857
10,4438,Division St & Townsend St  ,37.769894,-122.403301,1349999008,2867
10,4438,Division St & Townsend St  ,37.769894,-122.403301,1350001875,2058
10,4438,Division St & Townsend St  ,37.769894,-122.403301,1350003933,953
10,4438,Division St & Townsend St  ,37.769894,-122.403301,1350004886,1145
10,4438,Division St & Townsend St  ,37.769894,-122.403301,1350006031,839
10,4438,Division St & Townsend St  ,37.769894,-122.403301,1350006870,2066
10,4438,Division St & Townsend St  ,37.769894,-122.403301,1350008936,935
10,4438,Division St & Townsend St  ,37.769894,-122.403301,1350009871,2045
10,6700,Townsend St & 7th St   ,37.771704,-122.401661,1349956787,909
10,6700,Townsend St & 7th St   ,37.771704,-122.401661,1349957696,3009
10,6700,Townsend St & 7th St   ,37.771704,-122.401661,1349960705,608
10,6700,Townsend St & 7th St   ,37.771704,-122.401661,1349961313,940
10,6700,Townsend St & 7th St   ,37.771704,-122.401661,1349962253,2388
10,6700,Townsend St & 7th St   ,37.771704,-122.401661,1349964641,1202
10,6700,Townsend St & 7th St   ,37.771704,-122.401661,1349965843,600
10,6700,Townsend St & 7th St   ,37.771704,-122.401661,1349966443,88
10,6700,Townsend St & 7th St   ,37.771704,-122.401661,1349966531,1471
10,6700,Townsend St & 7th St   ,37.771704,-122.401661,1349968002,720
10,6700,Townsend St & 7th St   ,37.771704,-122.401661,1349968722,1061
10,6700,Townsend St & 7th St   ,37.771704,-122.401661,1349969783,973
10,6700,Townsend St & 7th St   ,37.771704,-122.401661,1349970756,2000
10,6700,Townsend St & 7th St   ,37.771704,-122.401661,1349972756,601
10,6700,Townsend St & 7th St   ,37.771704,-122.401661,1349973357,1649
10,6700,Townsend St & 7th St   ,37.771704,-122.401661,1349975006,838
10,6700,Townsend St & 7th St   ,37.771704,-122.401661,1349975844,1694
10,6700,Townsend St & 7th St   ,37.771704,-122.401661,1349977538,397
10,6700,Townsend St & 7th St   ,37.771704,-122.401661,1349977935,1444
10,6700,Townsend St & 7th St   ,37.771704,-122.401661,1349979379,1385
10,6700,Townsend St & 7th St   ,37.771704,-122.401661,1349980764,1488
10,6700,Townsend St & 7th St   ,37.771704,-122.401661,1349982252,668
10,6700,Townsend St & 7th St   ,37.771704,-122.401661,1349982920,765
10,6700,Townsend St & 7th St   ,37.771704,-122.401661,1349983685,2336
10,6700,Townsend St & 7th St   ,37.771704,-122.401661,1349986021,1461
10,6700,Townsend St & 7th St   ,37.771704,-122.401661,1349987482,62
10,6700,Townsend St & 7th St   ,37.771704,-122.401661,1349987544,2431
10,6700,Townsend St & 7th St   ,37.771704,-122.401661,1349989975,1317
10,6700,Townsend St & 7th St   ,37.771704,-122.401661,1349991292,1117
10,6700,Townsend St & 7th St   ,37.771704,-122.401661,1349992409,336
10,6700,Townsend St & 7th St   ,37.771704,-122.401661,1349992745,957
10,6700,Townsend St & 7th St   ,37.771704,-122.401661,1349993702,1196
10,6700,Townsend St & 7th St   ,37.771704,-122.401661,1349994898,1210
10,6700,Townsend St & 7th St   ,37.771704,-122.401661,1349996108,1502
10,6700,Townsend St & 7th St   ,37.771704,-122.401661,1349997610,1400
10,6700,Townsend St & 7th St   ,37.771704,-122.401661,1349999010,3168
10,6700,Townsend St & 7th St   ,37.771704,-122.401661,1350002178,1935
10,6700,Townsend St & 7th St   ,37.771704,-122.401661,1350004113,903
10,6700,Townsend St & 7th St   ,37.771704,-122.401661,1350005016,1079
10,6700,Townsend St & 7th St   ,37.771704,-122.401661,1350006095,998
10,6700,Townsend St & 7th St   ,37.771704,-122.401661,1350007093,1990
10,6700,Townsend St & 7th St   ,37.771704,-122.401661,1350009083,836
10,6700,Townsend St & 7th St   ,37.771704,-122.401661,1350009919,2161
10,6699,Townsend St & 6th St   ,37.77347,-122.399436,1349956848,1094
10,6699,Townsend St & 6th St   ,37.77347,-122.399436,1349957942,2859
10,6699,Townsend St & 6th St   ,37.77347,-122.399436,1349960801,591
10,6699,Townsend St & 6th St   ,37.77347,-122.399436,1349961392,1481
10,6699,Townsend St & 6th St   ,37.77347,-122.399436,1349962873,3189
10,6699,Townsend St & 6th St   ,37.77347,-122.399436,1349966062,108
10,6699,Townsend St & 6th St   ,37.77347,-122.399436,1349966170,467
10,6699,Townsend St & 6th St   ,37.77347,-122.399436,1349966637,435
10,6699,Townsend St & 6th St   ,37.77347,-122.399436,1349967072,1019
10,6699,Townsend St & 6th St   ,37.77347,-122.399436,1349968091,1001
10,6699,Townsend St & 6th St   ,37.77347,-122.399436,1349969092,581
10,6699,Townsend St & 6th St   ,37.77347,-122.399436,1349969673,1417
10,6699,Townsend St & 6th St   ,37.77347,-122.399436,1349971090,1806
10,6699,Townsend St & 6th St   ,37.77347,-122.399436,1349972896,469
10,6699,Townsend St & 6th St   ,37.77347,-122.399436,1349973365,1378
10,6699,Townsend St & 6th St   ,37.77347,-122.399436,1349974743,1284
10,6699,Townsend St & 6th St   ,37.77347,-122.399436,1349976027,1548
10,6699,Townsend St & 6th St   ,37.77347,-122.399436,1349977575,509
10,6699,Townsend St & 6th St   ,37.77347,-122.399436,1349978084,1249
10,6699,Townsend St & 6th St   ,37.77347,-122.399436,1349979333,1539
10,6699,Townsend St & 6th St   ,37.77347,-122.399436,1349980872,978
10,6699,Townsend St & 6th St   ,37.77347,-122.399436,1349981850,1274
10,6699,Townsend St & 6th St   ,37.77347,-122.399436,1349983124,733
10,6699,Townsend St & 6th St   ,37.77347,-122.399436,1349983857,1505
10,6699,Townsend St & 6th St   ,37.77347,-122.399436,1349985362,1439
10,6699,Townsend St & 6th St   ,37.77347,-122.399436,1349986801,1464
10,6699,Townsend St & 6th St   ,37.77347,-122.399436,1349988265,761
10,6699,Townsend St & 6th St   ,37.77347,-122.399436,1349989026,1280
10,6699,Townsend St & 6th St   ,37.77347,-122.399436,1349990306,879
10,6699,Townsend St & 6th St   ,37.77347,-122.399436,1349991185,1689
10,6699,Townsend St & 6th St   ,37.77347,-122.399436,1349992874,1634
10,6699,Townsend St & 6th St   ,37.77347,-122.399436,1349994508,1546
10,6699,Townsend St & 6th St   ,37.77347,-122.399436,1349996054,148
10,6699,Townsend St & 6th St   ,37.77347,-122.399436,1349996202,1142
10,6699,Townsend St & 6th St   ,37.77347,-122.399436,1349997344,1739
10,6699,Townsend St & 6th St   ,37.77347,-122.399436,1349999083,3054
10,6699,Townsend St & 6th St   ,37.77347,-122.399436,1350002137,2657
10,6699,Townsend St & 6th St   ,37.77347,-122.399436,1350004794,402
10,6699,Townsend St & 6th St   ,37.77347,-122.399436,1350005196,1068
10,6699,Townsend St & 6th St   ,37.77347,-122.399436,1350006264,3040
10,6699,Townsend St & 6th St   ,37.77347,-122.399436,1350009304,1012
10,6699,Townsend St & 6th St   ,37.77347,-122.399436,1350010316,1765
10,6697,Townsend St & 5th St   ,37.775227,-122.397211,1349957037,1012
10,6697,Townsend St & 5th St   ,37.775227,-122.397211,1349958049,2776
10,6697,Townsend St & 5th St   ,37.775227,-122.397211,1349960825,635
10,6697,Townsend St & 5th St   ,37.775227,-122.397211,1349961460,846
10,6697,Townsend St & 5th St   ,37.775227,-122.397211,1349962306,2377
10,6697,Townsend St & 5th St   ,37.775227,-122.397211,1349964683,1291
10,6697,Townsend St & 5th St   ,37.775227,-122.397211,1349965974,669
10,6697,Townsend St & 5th St   ,37.775227,-122.397211,1349966643,461
10,6697,Townsend St & 5th St   ,37.775227,-122.397211,1349967104,1101
10,6697,Townsend St & 5th St   ,37.775227,-122.397211,1349968205,854
10,6697,Townsend St & 5th St   ,37.775227,-122.397211,1349969059,708
10,6697,Townsend St & 5th St   ,37.775227,-122.397211,1349969767,1269
10,6697,Townsend St & 5th St   ,37.775227,-122.397211,1349971036,1648
10,6697,Townsend St & 5th St   ,37.775227,-122.397211,1349972684,1213
10,6697,Townsend St & 5th St   ,37.775227,-122.397211,1349973897,876
10,6697,Townsend St & 5th St   ,37.775227,-122.397211,1349974773,1187
10,6697,Townsend St & 5th St   ,37.775227,-122.397211,1349975960,1654
10,6697,Townsend St & 5th St   ,37.775227,-122.397211,1349977614,1790
10,6697,Townsend St & 5th St   ,37.775227,-122.397211,1349979404,444
10,6697,Townsend St & 5th St   ,37.775227,-122.397211,1349979848,1143
10,6697,Townsend St & 5th St   ,37.775227,-122.397211,1349980991,882
10,6697,Townsend St & 5th St   ,37.775227,-122.397211,1349981873,1216
10,6697,Townsend St & 5th St   ,37.775227,-122.397211,1349983089,872
10,6697,Townsend St & 5th St   ,37.775227,-122.397211,1349983961,1527
10,6697,Townsend St & 5th St   ,37.775227,-122.397211,1349985488,1403
10,6697,Townsend St & 5th St   ,37.775227,-122.397211,1349986891,1300
10,6697,Townsend St & 5th St   ,37.775227,-122.397211,1349988191,1815
10,6697,Townsend St & 5th St   ,37.775227,-122.397211,1349990006,1289
10,6697,Townsend St & 5th St   ,37.775227,-122.397211,1349991295,629
10,6697,Townsend St & 5th St   ,37.775227,-122.397211,1349991924,1137
10,6697,Townsend St & 5th St   ,37.775227,-122.397211,1349993061,920
10,6697,Townsend St & 5th St   ,37.775227,-122.397211,1349993981,1162
10,6697,Townsend St & 5th St   ,37.775227,-122.397211,1349995143,1042
10,6697,Townsend St & 5th St   ,37.775227,-122.397211,1349996185,1307
10,6697,Townsend St & 5th St   ,37.775227,-122.397211,1349997492,1717
10,6697,Townsend St & 5th St   ,37.775227,-122.397211,1349999209,2801
10,6697,Townsend St & 5th St   ,37.775227,-122.397211,1350002010,2668
10,6697,Townsend St & 5th St   ,37.775227,-122.397211,1350004678,498
10,6697,Townsend St & 5th St   ,37.775227,-122.397211,1350005176,1259
10,6697,Townsend St & 5th St   ,37.775227,-122.397211,1350006435,2966
10,6697,Townsend St & 5th St   ,37.775227,-122.397211,1350009401,787
10,6697,Townsend St & 5th St   ,37.775227,-122.397211,1350010188,2102
10,6695,Townsend St & 4th St   ,37.776984,-122.394986,1349957035,1002
10,6695,Townsend St & 4th St   ,37.776984,-122.394986,1349958037,2887
10,6695,Townsend St & 4th St   ,37.776984,-122.394986,1349960924,603
10,6695,Townsend St & 4th St   ,37.776984,-122.394986,1349961527,1195
10,6695,Townsend St & 4th St   ,37.776984,-122.394986,1349962722,2308
10,6695,Townsend St & 4th St   ,37.776984,-122.394986,1349965030,1586
10,6695,Townsend St & 4th St   ,37.776984,-122.394986,1349966616,89
10,6695,Townsend St & 4th St   ,37.776984,-122.394986,1349966705,488
10,6695,Townsend St & 4th St   ,37.776984,-122.394986,1349967193,1012
10,6695,Townsend St & 4th St   ,37.776984,-122.394986,1349968205,1514
10,6695,Townsend St & 4th St   ,37.776984,-122.394986,1349969719,584
10,6695,Townsend St & 4th St   ,37.776984,-122.394986,1349970303,691
10,6695,Townsend St & 4th St   ,37.776984,-122.394986,1349970994,1998
10,6695,Townsend St & 4th St   ,37.776984,-122.394986,1349972992,526
10,6695,Townsend St & 4th St   ,37.776984,-122.394986,1349973518,1268
10,6695,Townsend St & 4th St   ,37.776984,-122.394986,1349974786,1246
10,6695,Townsend St & 4th St   ,37.776984,-122.394986,1349976032,1653
10,6695,Townsend St & 4th St   ,37.776984,-122.394986,1349977685,347
10,6695,Townsend St & 4th St   ,37.776984,-122.394986,1349978032,1402
10,6695,Townsend St & 4th St   ,37.776984,-122.394986,1349979434,1520
10,6695,Townsend St & 4th St   ,37.776984,-122.394986,1349980954,1127
10,6695,Townsend St & 4th St   ,37.776984,-122.394986,1349982081,1058
10,6695,Townsend St & 4th St   ,37.776984,-122.394986,1349983139,679
10,6695,Townsend St & 4th St   ,37.776984,-122.394986,1349983818,1748
10,6695,Townsend St & 4th St   ,37.776984,-122.394986,1349985566,2014
10,6695,Townsend St & 4th St   ,37.776984,-122.394986,1349987580,381
10,6695,Townsend St & 4th St   ,37.776984,-122.394986,1349987961,1387
10,6695,Townsend St & 4th St   ,37.776984,-122.394986,1349989348,761
10,6695,Townsend St & 4th St   ,37.776984,-122.394986,1349990109,1204
10,6695,Townsend St & 4th St   ,37.776984,-122.394986,1349991313,1455
10,6695,Townsend St & 4th St   ,37.776984,-122.394986,1349992768,1271
10,6695,Townsend St & 4th St   ,37.776984,-122.394986,1349994039,1019
10,6695,Townsend St & 4th St   ,37.776984,-122.394986,1349995058,1113
10,6695,Townsend St & 4th St   ,37.776984,-122.394986,1349996171,1455
10,6695,Townsend St & 4th St   ,37.776984,-122.394986,1349997626,2278
10,6695,Townsend St & 4th St   ,37.776984,-122.394986,1349999904,3253
10,6695,Townsend St & 4th St   ,37.776984,-122.394986,1350003157,1421
10,6695,Townsend St & 4th St   ,37.776984,-122.394986,1350004578,649
10,6695,Townsend St & 4th St   ,37.776984,-122.394986,1350005227,1038
10,6695,Townsend St & 4th St   ,37.776984,-122.394986,1350006265,3233
10,6695,Townsend St & 4th St   ,37.776984,-122.394986,1350009498,624
10,6695,Townsend St & 4th St   ,37.776984,-122.394986,1350010122,2070
10,6691,Townsend St & 3rd St   ,37.778981,-122.392452,1349957633,433
10,6691,Townsend St & 3rd St   ,37.778981,-122.392452,1349958066,2836
10,6691,Townsend St & 3rd St   ,37.778981,-122.392452,1349960902,662
10,6691,Townsend St & 3rd St   ,37.778981,-122.392452,1349961564,1231
10,6691,Townsend St & 3rd St   ,37.778981,-122.392452,1349962795,2243
10,6691,Townsend St & 3rd St   ,37.778981,-122.392452,1349965038,1704
10,6691,Townsend St & 3rd St   ,37.778981,-122.392452,1349966742,230
10,6691,Townsend St & 3rd St   ,37.778981,-122.392452,1349966972,1272
10,6691,Townsend St & 3rd St   ,37.778981,-122.392452,1349968244,925
10,6691,Townsend St & 3rd St   ,37.778981,-122.392452,1349969169,600
10,6691,Townsend St & 3rd St   ,37.778981,-122.392452,1349969769,1379
10,6691,Townsend St & 3rd St   ,37.778981,-122.392452,1349971148,797
10,6691,Townsend St & 3rd St   ,37.778981,-122.392452,1349971945,1775
10,6691,Townsend St & 3rd St   ,37.778981,-122.392452,1349973720,136
10,6691,Townsend St & 3rd St   ,37.778981,-122.392452,1349973856,1072
10,6691,Townsend St & 3rd St   ,37.778981,-122.392452,1349974928,1232
10,6691,Townsend St & 3rd St   ,37.778981,-122.392452,1349976160,1623
10,6691,Townsend St & 3rd St   ,37.778981,-122.392452,1349977783,581
10,6691,Townsend St & 3rd St   ,37.778981,-122.392452,1349978364,1184
10,6691,Townsend St & 3rd St   ,37.778981,-122.392452,1349979548,1437
10,6691,Townsend St & 3rd St   ,37.778981,-122.392452,1349980985,941
10,6691,Townsend St & 3rd St   ,37.778981,-122.392452,1349981926,1255
10,6691,Townsend St & 3rd St   ,37.778981,-122.392452,1349983181,728
10,6691,Townsend St & 3rd St   ,37.778981,-122.392452,1349983909,1650
10,6691,Townsend St & 3rd St   ,37.778981,-122.392452,1349985559,1415
10,6691,Townsend St & 3rd St   ,37.778981,-122.392452,1349986974,926
10,6691,Townsend St & 3rd St   ,37.778981,-122.392452,1349987900,2290
10,6691,Townsend St & 3rd St   ,37.778981,-122.392452,1349990190,1189
10,6691,Townsend St & 3rd St   ,37.778981,-122.392452,1349991379,1993
10,6691,Townsend St & 3rd St   ,37.778981,-122.392452,1349993372,922
10,6691,Townsend St & 3rd St   ,37.778981,-122.392452,1349994294,250
10,6691,Townsend St & 3rd St   ,37.778981,-122.392452,1349994544,702
10,6691,Townsend St & 3rd St   ,37.778981,-122.392452,1349995246,988
10,6691,Townsend St & 3rd St   ,37.778981,-122.392452,1349996234,1297
10,6691,Townsend St & 3rd St   ,37.778981,-122.392452,1349997531,1863
10,6691,Townsend St & 3rd St   ,37.778981,-122.392452,1349999394,2941
10,6691,Townsend St & 3rd St   ,37.778981,-122.392452,1350002335,2342
10,6691,Townsend St & 3rd St   ,37.778981,-122.392452,1350004677,551
10,6691,Townsend St & 3rd St   ,37.778981,-122.392452,1350005228,1080
10,6691,Townsend St & 3rd St   ,37.778981,-122.392452,1350006308,3301
10,6691,Townsend St & 3rd St   ,37.778981,-122.392452,1350009609,720
10,6691,Townsend St & 3rd St   ,37.778981,-122.392452,1350010329,1916
10,3003,2nd St & Brannan St   ,37.781827,-122.391945,1349958082,769
10,3003,2nd St & Brannan St   ,37.781827,-122.391945,1349958851,2141
10,3003,2nd St & Brannan St   ,37.781827,-122.391945,1349960992,715
10,3003,2nd St & Brannan St   ,37.781827,-122.391945,1349961707,772
10,3003,2nd St & Brannan St   ,37.781827,-122.391945,1349962479,2601
10,3003,2nd St & Brannan St   ,37.781827,-122.391945,1349965080,1116
10,3003,2nd St & Brannan St   ,37.781827,-122.391945,1349966196,751
10,3003,2nd St & Brannan St   ,37.781827,-122.391945,1349966947,409
10,3003,2nd St & Brannan St   ,37.781827,-122.391945,1349967356,912
10,3003,2nd St & Brannan St   ,37.781827,-122.391945,1349968268,935
10,3003,2nd St & Brannan St   ,37.781827,-122.391945,1349969203,1738
10,3003,2nd St & Brannan St   ,37.781827,-122.391945,1349970941,237
10,3003,2nd St & Brannan St   ,37.781827,-122.391945,1349971178,1653
10,3003,2nd St & Brannan St   ,37.781827,-122.391945,1349972831,1040
10,3003,2nd St & Brannan St   ,37.781827,-122.391945,1349973871,1398
10,3003,2nd St & Brannan St   ,37.781827,-122.391945,1349975269,874
10,3003,2nd St & Brannan St   ,37.781827,-122.391945,1349976143,1637
10,3003,2nd St & Brannan St   ,37.781827,-122.391945,1349977780,1717
10,3003,2nd St & Brannan St   ,37.781827,-122.391945,1349979497,373
10,3003,2nd St & Brannan St   ,37.781827,-122.391945,1349979870,1120
10,3003,2nd St & Brannan St   ,37.781827,-122.391945,1349980990,1530
10,3003,2nd St & Brannan St   ,37.781827,-122.391945,1349982520,1388
10,3003,2nd St & Brannan St   ,37.781827,-122.391945,1349983908,136
10,3003,2nd St & Brannan St   ,37.781827,-122.391945,1349984044,1551
10,3003,2nd St & Brannan St   ,37.781827,-122.391945,1349985595,1535
10,3003,2nd St & Brannan St   ,37.781827,-122.391945,1349987130,902
10,3003,2nd St & Brannan St   ,37.781827,-122.391945,1349988032,1063
10,3003,2nd St & Brannan St   ,37.781827,-122.391945,1349989095,1108
10,3003,2nd St & Brannan St   ,37.781827,-122.391945,1349990203,1359
10,3003,2nd St & Brannan St   ,37.781827,-122.391945,1349991562,1275
10,3003,2nd St & Brannan St   ,37.781827,-122.391945,1349992837,1077
10,3003,2nd St & Brannan St   ,37.781827,-122.391945,1349993914,1292
10,3003,2nd St & Brannan St   ,37.781827,-122.391945,1349995206,1078
10,3003,2nd St & Brannan St   ,37.781827,-122.391945,1349996284,1838
10,3003,2nd St & Brannan St   ,37.781827,-122.391945,1349998122,1107
10,3003,2nd St & Brannan St   ,37.781827,-122.391945,1349999229,3102
10,3003,2nd St & Brannan St   ,37.781827,-122.391945,1350002331,2953
10,3003,2nd St & Brannan St   ,37.781827,-122.391945,1350005284,1080
10,3003,2nd St & Brannan St   ,37.781827,-122.391945,1350006364,2964
10,3003,2nd St & Brannan St   ,37.781827,-122.391945,1350009328,368
10,3003,2nd St & Brannan St   ,37.781827,-122.391945,1350009696,642
10,3003,2nd St & Brannan St   ,37.781827,-122.391945,1350010338,1909
10,7547,2nd St & Townsend St,37.780702,-122.390559,1349957298,667
10,7547,2nd St & Townsend St,37.780702,-122.390559,1349957965,2947
10,7547,2nd St & Townsend St,37.780702,-122.390559,1349960912,679
10,7547,2nd St & Townsend St,37.780702,-122.390559,1349961591,860
10,7547,2nd St & Townsend St,37.780702,-122.390559,1349962451,2482
10,7547,2nd St & Townsend St,37.780702,-122.390559,1349964933,1280
10,7547,2nd St & Townsend St,37.780702,-122.390559,1349966213,747
10,7547,2nd St & Townsend St,37.780702,-122.390559,1349966960,105
10,7547,2nd St & Townsend St,37.780702,-122.390559,1349967065,1906
10,7547,2nd St & Townsend St,37.780702,-122.390559,1349968971,205
10,7547,2nd St & Townsend St,37.780702,-122.390559,1349969176,686
10,7547,2nd St & Townsend St,37.780702,-122.390559,1349969862,1331
10,7547,2nd St & Townsend St,37.780702,-122.390559,1349971193,1690
10,7547,2nd St & Townsend St,37.780702,-122.390559,1349972883,900
10,7547,2nd St & Townsend St,37.780702,-122.390559,1349973783,1359
10,7547,2nd St & Townsend St,37.780702,-122.390559,1349975142,981
10,7547,2nd St & Townsend St,37.780702,-122.390559,1349976123,1707
10,7547,2nd St & Townsend St,37.780702,-122.390559,1349977830,832
10,7547,2nd St & Townsend St,37.780702,-122.390559,1349978662,973
10,7547,2nd St & Townsend St,37.780702,-122.390559,1349979635,1459
10,7547,2nd St & Townsend St,37.780702,-122.390559,1349981094,1091
10,7547,2nd St & Townsend St,37.780702,-122.390559,1349982185,1083
10,7547,2nd St & Townsend St,37.780702,-122.390559,1349983268,665
10,7547,2nd St & Townsend St,37.780702,-122.390559,1349983933,1586
10,7547,2nd St & Townsend St,37.780702,-122.390559,1349985519,1540
10,7547,2nd St & Townsend St,37.780702,-122.390559,1349987059,1082
10,7547,2nd St & Townsend St,37.780702,-122.390559,1349988141,1404
10,7547,2nd St & Townsend St,37.780702,-122.390559,1349989545,685
10,7547,2nd St & Townsend St,37.780702,-122.390559,1349990230,1206
10,7547,2nd St & Townsend St,37.780702,-122.390559,1349991436,1688
10,7547,2nd St & Townsend St,37.780702,-122.390559,1349993124,1267
10,7547,2nd St & Townsend St,37.780702,-122.390559,1349994391,1856
10,7547,2nd St & Townsend St,37.780702,-122.390559,1349996247,241
10,7547,2nd St & Townsend St,37.780702,-122.390559,1349996488,1431
10,7547,2nd St & Townsend St,37.780702,-122.390559,1349997919,1592
10,7547,2nd St & Townsend St,37.780702,-122.390559,1349999511,3289
10,7547,2nd St & Townsend St,37.780702,-122.390559,1350002800,1607
10,7547,2nd St & Townsend St,37.780702,-122.390559,1350004407,1402
10,7547,2nd St & Townsend St,37.780702,-122.390559,1350005809,683
10,7547,2nd St & Townsend St,37.780702,-122.390559,1350006492,3204
10,7547,2nd St & Townsend St,37.780702,-122.390559,1350009696,607
10,7547,2nd St & Townsend St,37.780702,-122.390559,1350010303,2048
10,3009,2nd St & Harrison St   ,37.784532,-122.395325,1349957661,1151
10,3009,2nd St & Harrison St   ,37.784532,-122.395325,1349958812,2220
10,3009,2nd St & Harrison St   ,37.784532,-122.395325,1349961032,1441
10,3009,2nd St & Harrison St   ,37.784532,-122.395325,1349962473,416
10,3009,2nd St & Harrison St   ,37.784532,-122.395325,1349962889,2144
10,3009,2nd St & Harrison St   ,37.784532,-122.395325,1349965033,1931
10,3009,2nd St & Harrison St   ,37.784532,-122.395325,1349966964,1032
10,3009,2nd St & Harrison St   ,37.784532,-122.395325,1349967996,1722
10,3009,2nd St & Harrison St   ,37.784532,-122.395325,1349969718,263
10,3009,2nd St & Harrison St   ,37.784532,-122.395325,1349969981,461
10,3009,2nd St & Harrison St   ,37.784532,-122.395325,1349970442,1439
10,3009,2nd St & Harrison St   ,37.784532,-122.395325,1349971881,1024
10,3009,2nd St & Harrison St   ,37.784532,-122.395325,1349972905,859
10,3009,2nd St & Harrison St   ,37.784532,-122.395325,1349973764,2346
10,3009,2nd St & Harrison St   ,37.784532,-122.395325,1349976110,277
10,3009,2nd St & Harrison St   ,37.784532,-122.395325,1349976387,1747
10,3009,2nd St & Harrison St   ,37.784532,-122.395325,1349978134,220
10,3009,2nd St & Harrison St   ,37.784532,-122.395325,1349978354,1620
10,3009,2nd St & Harrison St   ,37.784532,-122.395325,1349979974,1807
10,3009,2nd St & Harrison St   ,37.784532,-122.395325,1349981781,196
10,3009,2nd St & Harrison St   ,37.784532,-122.395325,1349981977,1448
10,3009,2nd St & Harrison St   ,37.784532,-122.395325,1349983425,976
10,3009,2nd St & Harrison St   ,37.784532,-122.395325,1349984401,1367
10,3009,2nd St & Harrison St   ,37.784532,-122.395325,1349985768,1162
10,3009,2nd St & Harrison St   ,37.784532,-122.395325,1349986930,1615
10,3009,2nd St & Harrison St   ,37.784532,-122.395325,1349988545,1152
10,3009,2nd St & Harrison St   ,37.784532,-122.395325,1349989697,660
10,3009,2nd St & Harrison St   ,37.784532,-122.395325,1349990357,2091
10,3009,2nd St & Harrison St   ,37.784532,-122.395325,1349992448,534
10,3009,2nd St & Harrison St   ,37.784532,-122.395325,1349992982,1151
10,3009,2nd St & Harrison St   ,37.784532,-122.395325,1349994133,1499
10,3009,2nd St & Harrison St   ,37.784532,-122.395325,1349995632,717
10,3009,2nd St & Harrison St   ,37.784532,-122.395325,1349996349,411
10,3009,2nd St & Harrison St   ,37.784532,-122.395325,1349996760,957
10,3009,2nd St & Harrison St   ,37.784532,-122.395325,1349997717,1807
10,3009,2nd St & Harrison St   ,37.784532,-122.395325,1349999524,3253
10,3009,2nd St & Harrison St   ,37.784532,-122.395325,1350002777,2815
10,3009,2nd St & Harrison St   ,37.784532,-122.395325,1350005592,569
10,3009,2nd St & Harrison St   ,37.784532,-122.395325,1350006161,2117
10,3009,2nd St & Harrison St   ,37.784532,-122.395325,1350008278,1633
10,3009,2nd St & Harrison St   ,37.784532,-122.395325,1350009911,341
10,3009,2nd St & Harrison St   ,37.784532,-122.395325,1350010252,2136
10,7588,2nd St & Folsom St,37.785514,-122.396597,1349957876,110
10,7588,2nd St & Folsom St,37.785514,-122.396597,1349957986,3066
10,7588,2nd St & Folsom St,37.785514,-122.396597,1349961052,1461
10,7588,2nd St & Folsom St,37.785514,-122.396597,1349962513,188
10,7588,2nd St & Folsom St,37.785514,-122.396597,1349962701,2343
10,7588,2nd St & Folsom St,37.785514,-122.396597,1349965044,1736
10,7588,2nd St & Folsom St,37.785514,-122.396597,1349966780,288
10,7588,2nd St & Folsom St,37.785514,-122.396597,1349967068,779
10,7588,2nd St & Folsom St,37.785514,-122.396597,1349967847,1084
10,7588,2nd St & Folsom St,37.785514,-122.396597,1349968931,824
10,7588,2nd St & Folsom St,37.785514,-122.396597,1349969755,599
10,7588,2nd St & Folsom St,37.785514,-122.396597,1349970354,1405
10,7588,2nd St & Folsom St,37.785514,-122.396597,1349971759,1121
10,7588,2nd St & Folsom St,37.785514,-122.396597,1349972880,926
10,7588,2nd St & Folsom St,37.785514,-122.396597,1349973806,1607
10,7588,2nd St & Folsom St,37.785514,-122.396597,1349975413,857
10,7588,2nd St & Folsom St,37.785514,-122.396597,1349976270,1681
10,7588,2nd St & Folsom St,37.785514,-122.396597,1349977951,750
10,7588,2nd St & Folsom St,37.785514,-122.396597,1349978701,1684
10,7588,2nd St & Folsom St,37.785514,-122.396597,1349980385,1065
10,7588,2nd St & Folsom St,37.785514,-122.396597,1349981450,888
10,7588,2nd St & Folsom St,37.785514,-122.396597,1349982338,1043
10,7588,2nd St & Folsom St,37.785514,-122.396597,1349983381,637
10,7588,2nd St & Folsom St,37.785514,-122.396597,1349984018,2064
10,7588,2nd St & Folsom St,37.785514,-122.396597,1349986082,1626
10,7588,2nd St & Folsom St,37.785514,-122.396597,1349987708,852
10,7588,2nd St & Folsom St,37.785514,-122.396597,1349988560,675
10,7588,2nd St & Folsom St,37.785514,-122.396597,1349989235,1474
10,7588,2nd St & Folsom St,37.785514,-122.396597,1349990709,1258
10,7588,2nd St & Folsom St,37.785514,-122.396597,1349991967,968
10,7588,2nd St & Folsom St,37.785514,-122.396597,1349992935,1183
10,7588,2nd St & Folsom St,37.785514,-122.396597,1349994118,1228
10,7588,2nd St & Folsom St,37.785514,-122.396597,1349995346,1324
10,7588,2nd St & Folsom St,37.785514,-122.396597,1349996670,1461
10,7588,2nd St & Folsom St,37.785514,-122.396597,1349998131,1400
10,7588,2nd St & Folsom St,37.785514,-122.396597,1349999531,3054
10,7588,2nd St & Folsom St,37.785514,-122.396597,1350002585,2530
10,7588,2nd St & Folsom St,37.785514,-122.396597,1350005115,1037
10,7588,2nd St & Folsom St,37.785514,-122.396597,1350006152,552
10,7588,2nd St & Folsom St,37.785514,-122.396597,1350006704,3262
10,7588,2nd St & Folsom St,37.785514,-122.396597,1350009966,1948
10,7588,2nd St & Folsom St,37.785514,-122.396597,1350011914,571
10,7496,Second Street & Folsom Street,37.78563,-122.396723,1349957838,240
10,7496,Second Street & Folsom Street,37.78563,-122.396723,1349958078,3772
10,7496,Second Street & Folsom Street,37.78563,-122.396723,1349961850,1058
10,7496,Second Street & Folsom Street,37.78563,-122.396723,1349962908,145
10,7496,Second Street & Folsom Street,37.78563,-122.396723,1349963053,2290
10,7496,Second Street & Folsom Street,37.78563,-122.396723,1349965343,1252
10,7496,Second Street & Folsom Street,37.78563,-122.396723,1349966595,554
10,7496,Second Street & Folsom Street,37.78563,-122.396723,1349967149,558
10,7496,Second Street & Folsom Street,37.78563,-122.396723,1349967707,1110
10,7496,Second Street & Folsom Street,37.78563,-122.396723,1349968817,838
10,7496,Second Street & Folsom Street,37.78563,-122.396723,1349969655,477
10,7496,Second Street & Folsom Street,37.78563,-122.396723,1349970132,3307
10,7496,Second Street & Folsom Street,37.78563,-122.396723,1349973439,803
10,7496,Second Street & Folsom Street,37.78563,-122.396723,1349974242,1143
10,7496,Second Street & Folsom Street,37.78563,-122.396723,1349975385,1197
10,7496,Second Street & Folsom Street,37.78563,-122.396723,1349976582,1370
10,7496,Second Street & Folsom Street,37.78563,-122.396723,1349977952,407
10,7496,Second Street & Folsom Street,37.78563,-122.396723,1349978359,1723
10,7496,Second Street & Folsom Street,37.78563,-122.396723,1349980082,877
10,7496,Second Street & Folsom Street,37.78563,-122.396723,1349980959,1438
10,7496,Second Street & Folsom Street,37.78563,-122.396723,1349982397,1061
10,7496,Second Street & Folsom Street,37.78563,-122.396723,1349983458,671
10,7496,Second Street & Folsom Street,37.78563,-122.396723,1349984129,446
10,7496,Second Street & Folsom Street,37.78563,-122.396723,1349984575,1165
10,7496,Second Street & Folsom Street,37.78563,-122.396723,1349985740,1294
10,7496,Second Street & Folsom Street,37.78563,-122.396723,1349987034,1431
10,7496,Second Street & Folsom Street,37.78563,-122.396723,1349988465,1156
10,7496,Second Street & Folsom Street,37.78563,-122.396723,1349989621,713
10,7496,Second Street & Folsom Street,37.78563,-122.396723,1349990334,2830
10,7496,Second Street & Folsom Street,37.78563,-122.396723,1349993164,438
10,7496,Second Street & Folsom Street,37.78563,-122.396723,1349993602,801
10,7496,Second Street & Folsom Street,37.78563,-122.396723,1349994403,1784
10,7496,Second Street & Folsom Street,37.78563,-122.396723,1349996187,358
10,7496,Second Street & Folsom Street,37.78563,-122.396723,1349996545,1606
10,7496,Second Street & Folsom Street,37.78563,-122.396723,1349998151,2050
10,7496,Second Street & Folsom Street,37.78563,-122.396723,1350000201,2424
10,7496,Second Street & Folsom Street,37.78563,-122.396723,1350002625,2162
10,7496,Second Street & Folsom Street,37.78563,-122.396723,1350004787,1082
10,7496,Second Street & Folsom Street,37.78563,-122.396723,1350005869,1031
10,7496,Second Street & Folsom Street,37.78563,-122.396723,1350006900,3072
10,7496,Second Street & Folsom Street,37.78563,-122.396723,1350009972,614
10,7496,Second Street & Folsom Street,37.78563,-122.396723,1350010586,2108
10,7548,2nd St & Howard St,37.786755,-122.398143,1349957532,1835
10,7548,2nd St & Howard St,37.786755,-122.398143,1349959367,1703
10,7548,2nd St & Howard St,37.786755,-122.398143,1349961070,1172
10,7548,2nd St & Howard St,37.786755,-122.398143,1349962242,515
10,7548,2nd St & Howard St,37.786755,-122.398143,1349962757,2153
10,7548,2nd St & Howard St,37.786755,-122.398143,1349964910,1951
10,7548,2nd St & Howard St,37.786755,-122.398143,1349966861,189
10,7548,2nd St & Howard St,37.786755,-122.398143,1349967050,321
10,7548,2nd St & Howard St,37.786755,-122.398143,1349967371,1221
10,7548,2nd St & Howard St,37.786755,-122.398143,1349968592,771
10,7548,2nd St & Howard St,37.786755,-122.398143,1349969363,1364
10,7548,2nd St & Howard St,37.786755,-122.398143,1349970727,1227
10,7548,2nd St & Howard St,37.786755,-122.398143,1349971954,1832
10,7548,2nd St & Howard St,37.786755,-122.398143,1349973786,169
10,7548,2nd St & Howard St,37.786755,-122.398143,1349973955,1182
10,7548,2nd St & Howard St,37.786755,-122.398143,1349975137,1191
10,7548,2nd St & Howard St,37.786755,-122.398143,1349976328,1690
10,7548,2nd St & Howard St,37.786755,-122.398143,1349978018,688
10,7548,2nd St & Howard St,37.786755,-122.398143,1349978706,1287
10,7548,2nd St & Howard St,37.786755,-122.398143,1349979993,1406
10,7548,2nd St & Howard St,37.786755,-122.398143,1349981399,676
10,7548,2nd St & Howard St,37.786755,-122.398143,1349982075,1591
10,7548,2nd St & Howard St,37.786755,-122.398143,1349983666,677
10,7548,2nd St & Howard St,37.786755,-122.398143,1349984343,1558
10,7548,2nd St & Howard St,37.786755,-122.398143,1349985901,1391
10,7548,2nd St & Howard St,37.786755,-122.398143,1349987292,1159
10,7548,2nd St & Howard St,37.786755,-122.398143,1349988451,793
10,7548,2nd St & Howard St,37.786755,-122.398143,1349989244,2918
10,7548,2nd St & Howard St,37.786755,-122.398143,1349992162,734
10,7548,2nd St & Howard St,37.786755,-122.398143,1349992896,61
10,7548,2nd St & Howard St,37.786755,-122.398143,1349992957,1219
10,7548,2nd St & Howard St,37.786755,-122.398143,1349994176,1501
10,7548,2nd St & Howard St,37.786755,-122.398143,1349995677,1010
10,7548,2nd St & Howard St,37.786755,-122.398143,1349996687,1214
10,7548,2nd St & Howard St,37.786755,-122.398143,1349997901,2207
10,7548,2nd St & Howard St,37.786755,-122.398143,1350000108,3028
10,7548,2nd St & Howard St,37.786755,-122.398143,1350003136,1516
10,7548,2nd St & Howard St,37.786755,-122.398143,1350004652,932
10,7548,2nd St & Howard St,37.786755,-122.398143,1350005584,1103
10,7548,2nd St & Howard St,37.786755,-122.398143,1350006687,3347
10,7548,2nd St & Howard St,37.786755,-122.398143,1350010034,337
10,7548,2nd St & Howard St,37.786755,-122.398143,1350010371,2329
10,7549,2nd St & Stevenson St,37.788282,-122.400068,1349958553,225
10,7549,2nd St & Stevenson St,37.788282,-122.400068,1349958778,2443
10,7549,2nd St & Stevenson St,37.788282,-122.400068,1349961221,793
10,7549,2nd St & Stevenson St,37.788282,-122.400068,1349962014,897
10,7549,2nd St & Stevenson St,37.788282,-122.400068,1349962911,3918
10,7549,2nd St & Stevenson St,37.788282,-122.400068,1349966829,431
10,7549,2nd St & Stevenson St,37.788282,-122.400068,1349967260,45
10,7549,2nd St & Stevenson St,37.788282,-122.400068,1349967305,2554
10,7549,2nd St & Stevenson St,37.788282,-122.400068,1349969859,147
10,7549,2nd St & Stevenson St,37.788282,-122.400068,1349970006,951
10,7549,2nd St & Stevenson St,37.788282,-122.400068,1349970957,985
10,7549,2nd St & Stevenson St,37.788282,-122.400068,1349971942,1710
10,7549,2nd St & Stevenson St,37.788282,-122.400068,1349973652,789
10,7549,2nd St & Stevenson St,37.788282,-122.400068,1349974441,224
10,7549,2nd St & Stevenson St,37.788282,-122.400068,1349974665,565
10,7549,2nd St & Stevenson St,37.788282,-122.400068,1349975230,1123
10,7549,2nd St & Stevenson St,37.788282,-122.400068,1349976353,1995
10,7549,2nd St & Stevenson St,37.788282,-122.400068,1349978348,992
10,7549,2nd St & Stevenson St,37.788282,-122.400068,1349979340,3211
10,7549,2nd St & Stevenson St,37.788282,-122.400068,1349982551,554
10,7549,2nd St & Stevenson St,37.788282,-122.400068,1349983105,436
10,7549,2nd St & Stevenson St,37.788282,-122.400068,1349983541,361
10,7549,2nd St & Stevenson St,37.788282,-122.400068,1349983902,440
10,7549,2nd St & Stevenson St,37.788282,-122.400068,1349984342,1544
10,7549,2nd St & Stevenson St,37.788282,-122.400068,1349985886,1375
10,7549,2nd St & Stevenson St,37.788282,-122.400068,1349987261,1049
10,7549,2nd St & Stevenson St,37.788282,-122.400068,1349988310,1309
10,7549,2nd St & Stevenson St,37.788282,-122.400068,1349989619,862
10,7549,2nd St & Stevenson St,37.788282,-122.400068,1349990481,1401
10,7549,2nd St & Stevenson St,37.788282,-122.400068,1349991882,2355
10,7549,2nd St & Stevenson St,37.788282,-122.400068,1349994237,1353
10,7549,2nd St & Stevenson St,37.788282,-122.400068,1349995590,2323
10,7549,2nd St & Stevenson St,37.788282,-122.400068,1349997913,158
10,7549,2nd St & Stevenson St,37.788282,-122.400068,1349998071,35
10,7549,2nd St & Stevenson St,37.788282,-122.400068,1349998106,2112
10,7549,2nd St & Stevenson St,37.788282,-122.400068,1350000218,2273
10,7549,2nd St & Stevenson St,37.788282,-122.400068,1350002491,2300
10,7549,2nd St & Stevenson St,37.788282,-122.400068,1350004791,1164
10,7549,2nd St & Stevenson St,37.788282,-122.400068,1350005955,1050
10,7549,2nd St & Stevenson St,37.788282,-122.400068,1350007005,3114
10,7549,2nd St & Stevenson St,37.788282,-122.400068,1350010119,342
10,7549,2nd St & Stevenson St,37.788282,-122.400068,1350010461,2134
10,7550,Sansome St & Sutter St,37.790352,-122.400502,1349957739,1209
10,7550,Sansome St & Sutter St,37.790352,-122.400502,1349958948,2205
10,7550,Sansome St & Sutter St,37.790352,-122.400502,1349961153,892
10,7550,Sansome St & Sutter St,37.790352,-122.400502,1349962045,630
10,7550,Sansome St & Sutter St,37.790352,-122.400502,1349962675,2518
10,7550,Sansome St & Sutter St,37.790352,-122.400502,1349965193,1938
10,7550,Sansome St & Sutter St,37.790352,-122.400502,1349967131,178
10,7550,Sansome St & Sutter St,37.790352,-122.400502,1349967309,788
10,7550,Sansome St & Sutter St,37.790352,-122.400502,1349968097,861
10,7550,Sansome St & Sutter St,37.790352,-122.400502,1349968958,569
10,7550,Sansome St & Sutter St,37.790352,-122.400502,1349969527,2329
10,7550,Sansome St & Sutter St,37.790352,-122.400502,1349971856,2145
10,7550,Sansome St & Sutter St,37.790352,-122.400502,1349974001,345
10,7550,Sansome St & Sutter St,37.790352,-122.400502,1349974346,922
10,7550,Sansome St & Sutter St,37.790352,-122.400502,1349975268,1120
10,7550,Sansome St & Sutter St,37.790352,-122.400502,1349976388,1413
10,7550,Sansome St & Sutter St,37.790352,-122.400502,1349977801,352
10,7550,Sansome St & Sutter St,37.790352,-122.400502,1349978153,1545
10,7550,Sansome St & Sutter St,37.790352,-122.400502,1349979698,465
10,7550,Sansome St & Sutter St,37.790352,-122.400502,1349980163,1151
10,7550,Sansome St & Sutter St,37.790352,-122.400502,1349981314,2388
10,7550,Sansome St & Sutter St,37.790352,-122.400502,1349983702,241
10,7550,Sansome St & Sutter St,37.790352,-122.400502,1349983943,332
10,7550,Sansome St & Sutter St,37.790352,-122.400502,1349984275,3051
10,7550,Sansome St & Sutter St,37.790352,-122.400502,1349987326,985
10,7550,Sansome St & Sutter St,37.790352,-122.400502,1349988311,810
10,7550,Sansome St & Sutter St,37.790352,-122.400502,1349989121,439
10,7550,Sansome St & Sutter St,37.790352,-122.400502,1349989560,2032
10,7550,Sansome St & Sutter St,37.790352,-122.400502,1349991592,351
10,7550,Sansome St & Sutter St,37.790352,-122.400502,1349991943,1107
10,7550,Sansome St & Sutter St,37.790352,-122.400502,1349993050,1230
10,7550,Sansome St & Sutter St,37.790352,-122.400502,1349994280,1416
10,7550,Sansome St & Sutter St,37.790352,-122.400502,1349995696,1045
10,7550,Sansome St & Sutter St,37.790352,-122.400502,1349996741,1474
10,7550,Sansome St & Sutter St,37.790352,-122.400502,1349998215,1590
10,7550,Sansome St & Sutter St,37.790352,-122.400502,1349999805,4114
10,7550,Sansome St & Sutter St,37.790352,-122.400502,1350003919,1016
10,7550,Sansome St & Sutter St,37.790352,-122.400502,1350004935,1899
10,7550,Sansome St & Sutter St,37.790352,-122.400502,1350006834,112
10,7550,Sansome St & Sutter St,37.790352,-122.400502,1350006946,3278
10,7550,Sansome St & Sutter St,37.790352,-122.400502,1350010224,366
10,7550,Sansome St & Sutter St,37.790352,-122.400502,1350010590,2030
10,6332,Sansome St & Pine St  ,37.79202,-122.40086,1349957708,1074
10,6332,Sansome St & Pine St  ,37.79202,-122.40086,1349958782,3243
10,6332,Sansome St & Pine St  ,37.79202,-122.40086,1349962025,18
10,6332,Sansome St & Pine St  ,37.79202,-122.40086,1349962043,634
10,6332,Sansome St & Pine St  ,37.79202,-122.40086,1349962677,3605
10,6332,Sansome St & Pine St  ,37.79202,-122.40086,1349966282,446
10,6332,Sansome St & Pine St  ,37.79202,-122.40086,1349966728,683
10,6332,Sansome St & Pine St  ,37.79202,-122.40086,1349967411,296
10,6332,Sansome St & Pine St  ,37.79202,-122.40086,1349967707,1224
10,6332,Sansome St & Pine St  ,37.79202,-122.40086,1349968931,719
10,6332,Sansome St & Pine St  ,37.79202,-122.40086,1349969650,946
10,6332,Sansome St & Pine St  ,37.79202,-122.40086,1349970596,1426
10,6332,Sansome St & Pine St  ,37.79202,-122.40086,1349972022,1517
10,6332,Sansome St & Pine St  ,37.79202,-122.40086,1349973539,695
10,6332,Sansome St & Pine St  ,37.79202,-122.40086,1349974234,1065
10,6332,Sansome St & Pine St  ,37.79202,-122.40086,1349975299,1468
10,6332,Sansome St & Pine St  ,37.79202,-122.40086,1349976767,1801
10,6332,Sansome St & Pine St  ,37.79202,-122.40086,1349978568,120
10,6332,Sansome St & Pine St  ,37.79202,-122.40086,1349978688,1336
10,6332,Sansome St & Pine St  ,37.79202,-122.40086,1349980024,1797
10,6332,Sansome St & Pine St  ,37.79202,-122.40086,1349981821,523
10,6332,Sansome St & Pine St  ,37.79202,-122.40086,1349982344,1541
10,6332,Sansome St & Pine St  ,37.79202,-122.40086,1349983885,518
10,6332,Sansome St & Pine St  ,37.79202,-122.40086,1349984403,1827
10,6332,Sansome St & Pine St  ,37.79202,-122.40086,1349986230,1188
10,6332,Sansome St & Pine St  ,37.79202,-122.40086,1349987418,983
10,6332,Sansome St & Pine St  ,37.79202,-122.40086,1349988401,2267
10,6332,Sansome St & Pine St  ,37.79202,-122.40086,1349990668,213
10,6332,Sansome St & Pine St  ,37.79202,-122.40086,1349990881,1052
10,6332,Sansome St & Pine St  ,37.79202,-122.40086,1349991933,2276
10,6332,Sansome St & Pine St  ,37.79202,-122.40086,1349994209,1234
10,6332,Sansome St & Pine St  ,37.79202,-122.40086,1349995443,198
10,6332,Sansome St & Pine St  ,37.79202,-122.40086,1349995641,2310
10,6332,Sansome St & Pine St  ,37.79202,-122.40086,1349997951,38
10,6332,Sansome St & Pine St  ,37.79202,-122.40086,1349997989,3320
10,6332,Sansome St & Pine St  ,37.79202,-122.40086,1350001309,1729
10,6332,Sansome St & Pine St  ,37.79202,-122.40086,1350003038,3368
10,6332,Sansome St & Pine St  ,37.79202,-122.40086,1350006406,846
10,6332,Sansome St & Pine St  ,37.79202,-122.40086,1350007252,1316
10,6332,Sansome St & Pine St  ,37.79202,-122.40086,1350008568,1679
10,6332,Sansome St & Pine St  ,37.79202,-122.40086,1350010247,320
10,6332,Sansome St & Pine St  ,37.79202,-122.40086,1350010567,2053
10,6333,Sansome St & Sacramento St  ,37.79428,-122.40131,1349957892,1238
10,6333,Sansome St & Sacramento St  ,37.79428,-122.40131,1349959130,2750
10,6333,Sansome St & Sacramento St  ,37.79428,-122.40131,1349961880,307
10,6333,Sansome St & Sacramento St  ,37.79428,-122.40131,1349962187,657
10,6333,Sansome St & Sacramento St  ,37.79428,-122.40131,1349962844,2428
10,6333,Sansome St & Sacramento St  ,37.79428,-122.40131,1349965272,1665
10,6333,Sansome St & Sacramento St  ,37.79428,-122.40131,1349966937,431
10,6333,Sansome St & Sacramento St  ,37.79428,-122.40131,1349967368,592
10,6333,Sansome St & Sacramento St  ,37.79428,-122.40131,1349967960,996
10,6333,Sansome St & Sacramento St  ,37.79428,-122.40131,1349968956,953
10,6333,Sansome St & Sacramento St  ,37.79428,-122.40131,1349969909,1077
10,6333,Sansome St & Sacramento St  ,37.79428,-122.40131,1349970986,653
10,6333,Sansome St & Sacramento St  ,37.79428,-122.40131,1349971639,2289
10,6333,Sansome St & Sacramento St  ,37.79428,-122.40131,1349973928,1433
10,6333,Sansome St & Sacramento St  ,37.79428,-122.40131,1349975361,1679
10,6333,Sansome St & Sacramento St  ,37.79428,-122.40131,1349977040,694
10,6333,Sansome St & Sacramento St  ,37.79428,-122.40131,1349977734,742
10,6333,Sansome St & Sacramento St  ,37.79428,-122.40131,1349978476,320
10,6333,Sansome St & Sacramento St  ,37.79428,-122.40131,1349978796,1332
10,6333,Sansome St & Sacramento St  ,37.79428,-122.40131,1349980128,1378
10,6333,Sansome St & Sacramento St  ,37.79428,-122.40131,1349981506,1739
10,6333,Sansome St & Sacramento St  ,37.79428,-122.40131,1349983245,729
10,6333,Sansome St & Sacramento St  ,37.79428,-122.40131,1349983974,643
10,6333,Sansome St & Sacramento St  ,37.79428,-122.40131,1349984617,1290
10,6333,Sansome St & Sacramento St  ,37.79428,-122.40131,1349985907,1556
10,6333,Sansome St & Sacramento St  ,37.79428,-122.40131,1349987463,965
10,6333,Sansome St & Sacramento St  ,37.79428,-122.40131,1349988428,1262
10,6333,Sansome St & Sacramento St  ,37.79428,-122.40131,1349989690,1091
10,6333,Sansome St & Sacramento St  ,37.79428,-122.40131,1349990781,1869
10,6333,Sansome St & Sacramento St  ,37.79428,-122.40131,1349992650,1202
10,6333,Sansome St & Sacramento St  ,37.79428,-122.40131,1349993852,529
10,6333,Sansome St & Sacramento St  ,37.79428,-122.40131,1349994381,1205
10,6333,Sansome St & Sacramento St  ,37.79428,-122.40131,1349995586,2895
10,6333,Sansome St & Sacramento St  ,37.79428,-122.40131,1349998481,1140
10,6333,Sansome St & Sacramento St  ,37.79428,-122.40131,1349999621,3505
10,6333,Sansome St & Sacramento St  ,37.79428,-122.40131,1350003126,3671
10,6333,Sansome St & Sacramento St  ,37.79428,-122.40131,1350006797,383
10,6333,Sansome St & Sacramento St  ,37.79428,-122.40131,1350007180,1993
10,6333,Sansome St & Sacramento St  ,37.79428,-122.40131,1350009173,1234
10,6333,Sansome St & Sacramento St  ,37.79428,-122.40131,1350010407,260
10,6333,Sansome St & Sacramento St  ,37.79428,-122.40131,1350010667,1983
10,6333,Sansome St & Sacramento St  ,37.79428,-122.40131,1350012650,7988
10,6337,Sansome St & Washington St  ,37.79606,-122.40166,1349957801,1454
10,6337,Sansome St & Washington St  ,37.79606,-122.40166,1349959255,2431
10,6337,Sansome St & Washington St  ,37.79606,-122.40166,1349961686,961
10,6337,Sansome St & Washington St  ,37.79606,-122.40166,1349962647,744
10,6337,Sansome St & Washington St  ,37.79606,-122.40166,1349963391,2535
10,6337,Sansome St & Washington St  ,37.79606,-122.40166,1349965926,1233
10,6337,Sansome St & Washington St  ,37.79606,-122.40166,1349967159,139
10,6337,Sansome St & Washington St  ,37.79606,-122.40166,1349967298,241
10,6337,Sansome St & Washington St  ,37.79606,-122.40166,1349967539,1538
10,6337,Sansome St & Washington St  ,37.79606,-122.40166,1349969077,715
10,6337,Sansome St & Washington St  ,37.79606,-122.40166,1349969792,1465
10,6337,Sansome St & Washington St  ,37.79606,-122.40166,1349971257,2822
10,6337,Sansome St & Washington St  ,37.79606,-122.40166,1349974079,363
10,6337,Sansome St & Washington St  ,37.79606,-122.40166,1349974442,1119
10,6337,Sansome St & Washington St  ,37.79606,-122.40166,1349975561,1965
10,6337,Sansome St & Washington St  ,37.79606,-122.40166,1349977526,539
10,6337,Sansome St & Washington St  ,37.79606,-122.40166,1349978065,539
10,6337,Sansome St & Washington St  ,37.79606,-122.40166,1349978604,107
10,6337,Sansome St & Washington St  ,37.79606,-122.40166,1349978711,2983
10,6337,Sansome St & Washington St  ,37.79606,-122.40166,1349981694,474
10,6337,Sansome St & Washington St  ,37.79606,-122.40166,1349982168,217
10,6337,Sansome St & Washington St  ,37.79606,-122.40166,1349982385,1982
10,6337,Sansome St & Washington St  ,37.79606,-122.40166,1349984367,541
10,6337,Sansome St & Washington St  ,37.79606,-122.40166,1349984908,1273
10,6337,Sansome St & Washington St  ,37.79606,-122.40166,1349986181,1079
10,6337,Sansome St & Washington St  ,37.79606,-122.40166,1349987260,3535
10,6337,Sansome St & Washington St  ,37.79606,-122.40166,1349990795,60
10,6337,Sansome St & Washington St  ,37.79606,-122.40166,1349990855,1085
10,6337,Sansome St & Washington St  ,37.79606,-122.40166,1349991940,1608
10,6337,Sansome St & Washington St  ,37.79606,-122.40166,1349993548,22
10,6337,Sansome St & Washington St  ,37.79606,-122.40166,1349993570,1059
10,6337,Sansome St & Washington St  ,37.79606,-122.40166,1349994629,2497
10,6337,Sansome St & Washington St  ,37.79606,-122.40166,1349997126,116
10,6337,Sansome St & Washington St  ,37.79606,-122.40166,1349997242,753
10,6337,Sansome St & Washington St  ,37.79606,-122.40166,1349997995,2368
10,6337,Sansome St & Washington St  ,37.79606,-122.40166,1350000363,3327
10,6337,Sansome St & Washington St  ,37.79606,-122.40166,1350003690,2182
10,6337,Sansome St & Washington St  ,37.79606,-122.40166,1350005872,2520
10,6337,Sansome St & Washington St  ,37.79606,-122.40166,1350008392,2085
10,6337,Sansome St & Washington St  ,37.79606,-122.40166,1350010477,594
10,6337,Sansome St & Washington St  ,37.79606,-122.40166,1350011071,1144
10,6337,Sansome St & Washington St  ,37.79606,-122.40166,1350012215,464
10,5837,Pacific Ave & Grant Ave  ,37.796984,-122.406735,1349957670,1498
10,5837,Pacific Ave & Grant Ave  ,37.796984,-122.406735,1349959168,2169
10,5837,Pacific Ave & Grant Ave  ,37.796984,-122.406735,1349961337,987
10,5837,Pacific Ave & Grant Ave  ,37.796984,-122.406735,1349962324,594
10,5837,Pacific Ave & Grant Ave  ,37.796984,-122.406735,1349962918,2394
10,5837,Pacific Ave & Grant Ave  ,37.796984,-122.406735,1349965312,1501
10,5837,Pacific Ave & Grant Ave  ,37.796984,-122.406735,1349966813,548
10,5837,Pacific Ave & Grant Ave  ,37.796984,-122.406735,1349967361,174
10,5837,Pacific Ave & Grant Ave  ,37.796984,-122.406735,1349967535,3825
10,5837,Pacific Ave & Grant Ave  ,37.796984,-122.406735,1349971360,86
10,5837,Pacific Ave & Grant Ave  ,37.796984,-122.406735,1349971446,562
10,5837,Pacific Ave & Grant Ave  ,37.796984,-122.406735,1349972008,326
10,5837,Pacific Ave & Grant Ave  ,37.796984,-122.406735,1349972334,1386
10,5837,Pacific Ave & Grant Ave  ,37.796984,-122.406735,1349973720,714
10,5837,Pacific Ave & Grant Ave  ,37.796984,-122.406735,1349974434,1033
10,5837,Pacific Ave & Grant Ave  ,37.796984,-122.406735,1349975467,1342
10,5837,Pacific Ave & Grant Ave  ,37.796984,-122.406735,1349976809,1804
10,5837,Pacific Ave & Grant Ave  ,37.796984,-122.406735,1349978613,1814
10,5837,Pacific Ave & Grant Ave  ,37.796984,-122.406735,1349980427,1168
10,5837,Pacific Ave & Grant Ave  ,37.796984,-122.406735,1349981595,2588
10,5837,Pacific Ave & Grant Ave  ,37.796984,-122.406735,1349984183,288
10,5837,Pacific Ave & Grant Ave  ,37.796984,-122.406735,1349984471,440
10,5837,Pacific Ave & Grant Ave  ,37.796984,-122.406735,1349984911,1413
10,5837,Pacific Ave & Grant Ave  ,37.796984,-122.406735,1349986324,2159
10,5837,Pacific Ave & Grant Ave  ,37.796984,-122.406735,1349988483,1616
10,5837,Pacific Ave & Grant Ave  ,37.796984,-122.406735,1349990099,736
10,5837,Pacific Ave & Grant Ave  ,37.796984,-122.406735,1349990835,276
10,5837,Pacific Ave & Grant Ave  ,37.796984,-122.406735,1349991111,2289
10,5837,Pacific Ave & Grant Ave  ,37.796984,-122.406735,1349993400,2352
10,5837,Pacific Ave & Grant Ave  ,37.796984,-122.406735,1349995752,99
10,5837,Pacific Ave & Grant Ave  ,37.796984,-122.406735,1349995851,141
10,5837,Pacific Ave & Grant Ave  ,37.796984,-122.406735,1349995992,2040
10,5837,Pacific Ave & Grant Ave  ,37.796984,-122.406735,1349998032,1695
10,5837,Pacific Ave & Grant Ave  ,37.796984,-122.406735,1349999727,1590
10,5837,Pacific Ave & Grant Ave  ,37.796984,-122.406735,1350001317,4446
10,5837,Pacific Ave & Grant Ave  ,37.796984,-122.406735,1350005763,900
10,5837,Pacific Ave & Grant Ave  ,37.796984,-122.406735,1350006663,635
10,5837,Pacific Ave & Grant Ave  ,37.796984,-122.406735,1350007298,316
10,5837,Pacific Ave & Grant Ave  ,37.796984,-122.406735,1350007614,2921
10,5837,Pacific Ave & Grant Ave  ,37.796984,-122.406735,1350010535,24
10,5837,Pacific Ave & Grant Ave  ,37.796984,-122.406735,1350010559,2264
10,5837,Pacific Ave & Grant Ave  ,37.796984,-122.406735,1350012823,49
10,5842,Pacific Ave & Kearny St  ,37.79717,-122.405222,1349957810,1685
10,5842,Pacific Ave & Kearny St  ,37.79717,-122.405222,1349959495,2722
10,5842,Pacific Ave & Kearny St  ,37.79717,-122.405222,1349962217,581
10,5842,Pacific Ave & Kearny St  ,37.79717,-122.405222,1349962798,1035
10,5842,Pacific Ave & Kearny St  ,37.79717,-122.405222,1349963833,1521
10,5842,Pacific Ave & Kearny St  ,37.79717,-122.405222,1349965354,2169
10,5842,Pacific Ave & Kearny St  ,37.79717,-122.405222,1349967523,900
10,5842,Pacific Ave & Kearny St  ,37.79717,-122.405222,1349968423,840
10,5842,Pacific Ave & Kearny St  ,37.79717,-122.405222,1349969263,376
10,5842,Pacific Ave & Kearny St  ,37.79717,-122.405222,1349969639,2139
10,5842,Pacific Ave & Kearny St  ,37.79717,-122.405222,1349971778,145
10,5842,Pacific Ave & Kearny St  ,37.79717,-122.405222,1349971923,1993
10,5842,Pacific Ave & Kearny St  ,37.79717,-122.405222,1349973916,174
10,5842,Pacific Ave & Kearny St  ,37.79717,-122.405222,1349974090,447
10,5842,Pacific Ave & Kearny St  ,37.79717,-122.405222,1349974537,1220
10,5842,Pacific Ave & Kearny St  ,37.79717,-122.405222,1349975757,839
10,5842,Pacific Ave & Kearny St  ,37.79717,-122.405222,1349976596,2506
10,5842,Pacific Ave & Kearny St  ,37.79717,-122.405222,1349979102,1079
10,5842,Pacific Ave & Kearny St  ,37.79717,-122.405222,1349980181,2422
10,5842,Pacific Ave & Kearny St  ,37.79717,-122.405222,1349982603,1376
10,5842,Pacific Ave & Kearny St  ,37.79717,-122.405222,1349983979,310
10,5842,Pacific Ave & Kearny St  ,37.79717,-122.405222,1349984289,929
10,5842,Pacific Ave & Kearny St  ,37.79717,-122.405222,1349985218,617
10,5842,Pacific Ave & Kearny St  ,37.79717,-122.405222,1349985835,738
10,5842,Pacific Ave & Kearny St  ,37.79717,-122.405222,1349986573,785
10,5842,Pacific Ave & Kearny St  ,37.79717,-122.405222,1349987358,1827
10,5842,Pacific Ave & Kearny St  ,37.79717,-122.405222,1349989185,1013
10,5842,Pacific Ave & Kearny St  ,37.79717,-122.405222,1349990198,600
10,5842,Pacific Ave & Kearny St  ,37.79717,-122.405222,1349990798,1387
10,5842,Pacific Ave & Kearny St  ,37.79717,-122.405222,1349992185,1894
10,5842,Pacific Ave & Kearny St  ,37.79717,-122.405222,1349994079,442
10,5842,Pacific Ave & Kearny St  ,37.79717,-122.405222,1349994521,2809
10,5842,Pacific Ave & Kearny St  ,37.79717,-122.405222,1349997330,1005
10,5842,Pacific Ave & Kearny St  ,37.79717,-122.405222,1349998335,1172
10,5842,Pacific Ave & Kearny St  ,37.79717,-122.405222,1349999507,1733
10,5842,Pacific Ave & Kearny St  ,37.79717,-122.405222,1350001240,4742
10,5842,Pacific Ave & Kearny St  ,37.79717,-122.405222,1350005982,258
10,5842,Pacific Ave & Kearny St  ,37.79717,-122.405222,1350006240,922
10,5842,Pacific Ave & Kearny St  ,37.79717,-122.405222,1350007162,479
10,5842,Pacific Ave & Kearny St  ,37.79717,-122.405222,1350007641,2894
10,5842,Pacific Ave & Kearny St  ,37.79717,-122.405222,1350010535,439
10,5842,Pacific Ave & Kearny St  ,37.79717,-122.405222,1350010974,1927
10,5849,Pacific Ave & Montgomery St  ,37.797393,-122.403582,1349957845,1476
10,5849,Pacific Ave & Montgomery St  ,37.797393,-122.403582,1349959321,2857
10,5849,Pacific Ave & Montgomery St  ,37.797393,-122.403582,1349962178,149
10,5849,Pacific Ave & Montgomery St  ,37.797393,-122.403582,1349962327,619
10,5849,Pacific Ave & Montgomery St  ,37.797393,-122.403582,1349962946,4060
10,5849,Pacific Ave & Montgomery St  ,37.797393,-122.403582,1349967006,62
10,5849,Pacific Ave & Montgomery St  ,37.797393,-122.403582,1349967068,543
10,5849,Pacific Ave & Montgomery St  ,37.797393,-122.403582,1349967611,1290
10,5849,Pacific Ave & Montgomery St  ,37.797393,-122.403582,1349968901,813
10,5849,Pacific Ave & Montgomery St  ,37.797393,-122.403582,1349969714,427
10,5849,Pacific Ave & Montgomery St  ,37.797393,-122.403582,1349970141,1486
10,5849,Pacific Ave & Montgomery St  ,37.797393,-122.403582,1349971627,654
10,5849,Pacific Ave & Montgomery St  ,37.797393,-122.403582,1349972281,1449
10,5849,Pacific Ave & Montgomery St  ,37.797393,-122.403582,1349973730,614
10,5849,Pacific Ave & Montgomery St  ,37.797393,-122.403582,1349974344,1326
10,5849,Pacific Ave & Montgomery St  ,37.797393,-122.403582,1349975670,1018
10,5849,Pacific Ave & Montgomery St  ,37.797393,-122.403582,1349976688,2288
10,5849,Pacific Ave & Montgomery St  ,37.797393,-122.403582,1349978976,411
10,5849,Pacific Ave & Montgomery St  ,37.797393,-122.403582,1349979387,781
10,5849,Pacific Ave & Montgomery St  ,37.797393,-122.403582,1349980168,1595
10,5849,Pacific Ave & Montgomery St  ,37.797393,-122.403582,1349981763,687
10,5849,Pacific Ave & Montgomery St  ,37.797393,-122.403582,1349982450,2195
10,5849,Pacific Ave & Montgomery St  ,37.797393,-122.403582,1349984645,65
10,5849,Pacific Ave & Montgomery St  ,37.797393,-122.403582,1349984710,1477
10,5849,Pacific Ave & Montgomery St  ,37.797393,-122.403582,1349986187,1670
10,5849,Pacific Ave & Montgomery St  ,37.797393,-122.403582,1349987857,1054
10,5849,Pacific Ave & Montgomery St  ,37.797393,-122.403582,1349988911,879
10,5849,Pacific Ave & Montgomery St  ,37.797393,-122.403582,1349989790,1238
10,5849,Pacific Ave & Montgomery St  ,37.797393,-122.403582,1349991028,1095
10,5849,Pacific Ave & Montgomery St  ,37.797393,-122.403582,1349992123,2415
10,5849,Pacific Ave & Montgomery St  ,37.797393,-122.403582,1349994538,427
10,5849,Pacific Ave & Montgomery St  ,37.797393,-122.403582,1349994965,2237
10,5849,Pacific Ave & Montgomery St  ,37.797393,-122.403582,1349997202,385
10,5849,Pacific Ave & Montgomery St  ,37.797393,-122.403582,1349997587,965
10,5849,Pacific Ave & Montgomery St  ,37.797393,-122.403582,1349998552,2040
10,5849,Pacific Ave & Montgomery St  ,37.797393,-122.403582,1350000592,4656
10,5849,Pacific Ave & Montgomery St  ,37.797393,-122.403582,1350005248,1596
10,5849,Pacific Ave & Montgomery St  ,37.797393,-122.403582,1350006844,816
10,5849,Pacific Ave & Montgomery St  ,37.797393,-122.403582,1350007660,681
10,5849,Pacific Ave & Montgomery St  ,37.797393,-122.403582,1350008341,2194
10,5849,Pacific Ave & Montgomery St  ,37.797393,-122.403582,1350010535,385
10,5849,Pacific Ave & Montgomery St  ,37.797393,-122.403582,1350010920,1931
10,5854,Pacific Ave & Sansome St  ,37.797544,-122.402367,1349957735,1272
10,5854,Pacific Ave & Sansome St  ,37.797544,-122.402367,1349959007,2975
10,5854,Pacific Ave & Sansome St  ,37.797544,-122.402367,1349961982,380
10,5854,Pacific Ave & Sansome St  ,37.797544,-122.402367,1349962362,660
10,5854,Pacific Ave & Sansome St  ,37.797544,-122.402367,1349963022,3165
10,5854,Pacific Ave & Sansome St  ,37.797544,-122.402367,1349966187,777
10,5854,Pacific Ave & Sansome St  ,37.797544,-122.402367,1349966964,601
10,5854,Pacific Ave & Sansome St  ,37.797544,-122.402367,1349967565,227
10,5854,Pacific Ave & Sansome St  ,37.797544,-122.402367,1349967792,1437
10,5854,Pacific Ave & Sansome St  ,37.797544,-122.402367,1349969229,600
10,5854,Pacific Ave & Sansome St  ,37.797544,-122.402367,1349969829,1837
10,5854,Pacific Ave & Sansome St  ,37.797544,-122.402367,1349971666,452
10,5854,Pacific Ave & Sansome St  ,37.797544,-122.402367,1349972118,1605
10,5854,Pacific Ave & Sansome St  ,37.797544,-122.402367,1349973723,778
10,5854,Pacific Ave & Sansome St  ,37.797544,-122.402367,1349974501,1174
10,5854,Pacific Ave & Sansome St  ,37.797544,-122.402367,1349975675,1071
10,5854,Pacific Ave & Sansome St  ,37.797544,-122.402367,1349976746,1979
10,5854,Pacific Ave & Sansome St  ,37.797544,-122.402367,1349978725,661
10,5854,Pacific Ave & Sansome St  ,37.797544,-122.402367,1349979386,3255
10,5854,Pacific Ave & Sansome St  ,37.797544,-122.402367,1349982641,18
10,5854,Pacific Ave & Sansome St  ,37.797544,-122.402367,1349982659,1104
10,5854,Pacific Ave & Sansome St  ,37.797544,-122.402367,1349983763,221
10,5854,Pacific Ave & Sansome St  ,37.797544,-122.402367,1349983984,1059
10,5854,Pacific Ave & Sansome St  ,37.797544,-122.402367,1349985043,2486
10,5854,Pacific Ave & Sansome St  ,37.797544,-122.402367,1349987529,954
10,5854,Pacific Ave & Sansome St  ,37.797544,-122.402367,1349988483,398
10,5854,Pacific Ave & Sansome St  ,37.797544,-122.402367,1349988881,1175
10,5854,Pacific Ave & Sansome St  ,37.797544,-122.402367,1349990056,1869
10,5854,Pacific Ave & Sansome St  ,37.797544,-122.402367,1349991925,479
10,5854,Pacific Ave & Sansome St  ,37.797544,-122.402367,1349992404,1390
10,5854,Pacific Ave & Sansome St  ,37.797544,-122.402367,1349993794,1058
10,5854,Pacific Ave & Sansome St  ,37.797544,-122.402367,1349994852,828
10,5854,Pacific Ave & Sansome St  ,37.797544,-122.402367,1349995680,1882
10,5854,Pacific Ave & Sansome St  ,37.797544,-122.402367,1349997562,4600
10,5854,Pacific Ave & Sansome St  ,37.797544,-122.402367,1350002162,3197
10,5854,Pacific Ave & Sansome St  ,37.797544,-122.402367,1350005359,1928
10,5854,Pacific Ave & Sansome St  ,37.797544,-122.402367,1350007287,1496
10,5854,Pacific Ave & Sansome St  ,37.797544,-122.402367,1350008783,1752
10,5854,Pacific Ave & Sansome St  ,37.797544,-122.402367,1350010535,282
10,5854,Pacific Ave & Sansome St  ,37.797544,-122.402367,1350010817,634
10,5854,Pacific Ave & Sansome St  ,37.797544,-122.402367,1350011451,1476
10,5854,Pacific Ave & Sansome St  ,37.797544,-122.402367,1350012927,110
10,5855,Pacific Ave & Stockton St  ,37.796788,-122.408329,1349958258,997
10,5855,Pacific Ave & Stockton St  ,37.796788,-122.408329,1349959255,3259
10,5855,Pacific Ave & Stockton St  ,37.796788,-122.408329,1349962514,376
10,5855,Pacific Ave & Stockton St  ,37.796788,-122.408329,1349962890,161
10,5855,Pacific Ave & Stockton St  ,37.796788,-122.408329,1349963051,2827
10,5855,Pacific Ave & Stockton St  ,37.796788,-122.408329,1349965878,1457
10,5855,Pacific Ave & Stockton St  ,37.796788,-122.408329,1349967335,225
10,5855,Pacific Ave & Stockton St  ,37.796788,-122.408329,1349967560,268
10,5855,Pacific Ave & Stockton St  ,37.796788,-122.408329,1349967828,1974
10,5855,Pacific Ave & Stockton St  ,37.796788,-122.408329,1349969802,92
10,5855,Pacific Ave & Stockton St  ,37.796788,-122.408329,1349969894,1226
10,5855,Pacific Ave & Stockton St  ,37.796788,-122.408329,1349971120,918
10,5855,Pacific Ave & Stockton St  ,37.796788,-122.408329,1349972038,2232
10,5855,Pacific Ave & Stockton St  ,37.796788,-122.408329,1349974270,1564
10,5855,Pacific Ave & Stockton St  ,37.796788,-122.408329,1349975834,479
10,5855,Pacific Ave & Stockton St  ,37.796788,-122.408329,1349976313,617
10,5855,Pacific Ave & Stockton St  ,37.796788,-122.408329,1349976930,2023
10,5855,Pacific Ave & Stockton St  ,37.796788,-122.408329,1349978953,1067
10,5855,Pacific Ave & Stockton St  ,37.796788,-122.408329,1349980020,817
10,5855,Pacific Ave & Stockton St  ,37.796788,-122.408329,1349980837,2110
10,5855,Pacific Ave & Stockton St  ,37.796788,-122.408329,1349982947,77
10,5855,Pacific Ave & Stockton St  ,37.796788,-122.408329,1349983024,958
10,5855,Pacific Ave & Stockton St  ,37.796788,-122.408329,1349983982,656
10,5855,Pacific Ave & Stockton St  ,37.796788,-122.408329,1349984638,2055
10,5855,Pacific Ave & Stockton St  ,37.796788,-122.408329,1349986693,1035
10,5855,Pacific Ave & Stockton St  ,37.796788,-122.408329,1349987728,1221
10,5855,Pacific Ave & Stockton St  ,37.796788,-122.408329,1349988949,1664
10,5855,Pacific Ave & Stockton St  ,37.796788,-122.408329,1349990613,123
10,5855,Pacific Ave & Stockton St  ,37.796788,-122.408329,1349990736,1542
10,5855,Pacific Ave & Stockton St  ,37.796788,-122.408329,1349992278,2467
10,5855,Pacific Ave & Stockton St  ,37.796788,-122.408329,1349994745,134
10,5855,Pacific Ave & Stockton St  ,37.796788,-122.408329,1349994879,2986
10,5855,Pacific Ave & Stockton St  ,37.796788,-122.408329,1349997865,1144
10,5855,Pacific Ave & Stockton St  ,37.796788,-122.408329,1349999009,8
10,5855,Pacific Ave & Stockton St  ,37.796788,-122.408329,1349999017,1082
10,5855,Pacific Ave & Stockton St  ,37.796788,-122.408329,1350000099,6401
10,5855,Pacific Ave & Stockton St  ,37.796788,-122.408329,1350006500,701
10,5855,Pacific Ave & Stockton St  ,37.796788,-122.408329,1350007201,2184
10,5855,Pacific Ave & Stockton St  ,37.796788,-122.408329,1350009385,1339
10,5855,Pacific Ave & Stockton St  ,37.796788,-122.408329,1350010724,192
10,5855,Pacific Ave & Stockton St  ,37.796788,-122.408329,1350010916,1834
10,5855,Pacific Ave & Stockton St  ,37.796788,-122.408329,1350012750,214
10,5852,Pacific Ave & Powell St  ,37.796556,-122.410037,1349958012,1202
10,5852,Pacific Ave & Powell St  ,37.796556,-122.410037,1349959214,3380
10,5852,Pacific Ave & Powell St  ,37.796556,-122.410037,1349962594,203
10,5852,Pacific Ave & Powell St  ,37.796556,-122.410037,1349962797,3088
10,5852,Pacific Ave & Powell St  ,37.796556,-122.410037,1349965885,1055
10,5852,Pacific Ave & Powell St  ,37.796556,-122.410037,1349966940,474
10,5852,Pacific Ave & Powell St  ,37.796556,-122.410037,1349967414,349
10,5852,Pacific Ave & Powell St  ,37.796556,-122.410037,1349967763,275
10,5852,Pacific Ave & Powell St  ,37.796556,-122.410037,1349968038,3285
10,5852,Pacific Ave & Powell St  ,37.796556,-122.410037,1349971323,467
10,5852,Pacific Ave & Powell St  ,37.796556,-122.410037,1349971790,767
10,5852,Pacific Ave & Powell St  ,37.796556,-122.410037,1349972557,1462
10,5852,Pacific Ave & Powell St  ,37.796556,-122.410037,1349974019,597
10,5852,Pacific Ave & Powell St  ,37.796556,-122.410037,1349974616,519
10,5852,Pacific Ave & Powell St  ,37.796556,-122.410037,1349975135,563
10,5852,Pacific Ave & Powell St  ,37.796556,-122.410037,1349975698,1546
10,5852,Pacific Ave & Powell St  ,37.796556,-122.410037,1349977244,1774
10,5852,Pacific Ave & Powell St  ,37.796556,-122.410037,1349979018,60
10,5852,Pacific Ave & Powell St  ,37.796556,-122.410037,1349979078,2635
10,5852,Pacific Ave & Powell St  ,37.796556,-122.410037,1349981713,740
10,5852,Pacific Ave & Powell St  ,37.796556,-122.410037,1349982453,2145
10,5852,Pacific Ave & Powell St  ,37.796556,-122.410037,1349984598,38
10,5852,Pacific Ave & Powell St  ,37.796556,-122.410037,1349984636,493
10,5852,Pacific Ave & Powell St  ,37.796556,-122.410037,1349985129,1785
10,5852,Pacific Ave & Powell St  ,37.796556,-122.410037,1349986914,713
10,5852,Pacific Ave & Powell St  ,37.796556,-122.410037,1349987627,2380
10,5852,Pacific Ave & Powell St  ,37.796556,-122.410037,1349990007,239
10,5852,Pacific Ave & Powell St  ,37.796556,-122.410037,1349990246,1666
10,5852,Pacific Ave & Powell St  ,37.796556,-122.410037,1349991912,427
10,5852,Pacific Ave & Powell St  ,37.796556,-122.410037,1349992339,1367
10,5852,Pacific Ave & Powell St  ,37.796556,-122.410037,1349993706,2666
10,5852,Pacific Ave & Powell St  ,37.796556,-122.410037,1349996372,659
10,5852,Pacific Ave & Powell St  ,37.796556,-122.410037,1349997031,681
10,5852,Pacific Ave & Powell St  ,37.796556,-122.410037,1349997712,1928
10,5852,Pacific Ave & Powell St  ,37.796556,-122.410037,1349999640,1510
10,5852,Pacific Ave & Powell St  ,37.796556,-122.410037,1350001150,2503
10,5852,Pacific Ave & Powell St  ,37.796556,-122.410037,1350003653,2127
10,5852,Pacific Ave & Powell St  ,37.796556,-122.410037,1350005780,1405
10,5852,Pacific Ave & Powell St  ,37.796556,-122.410037,1350007185,660
10,5852,Pacific Ave & Powell St  ,37.796556,-122.410037,1350007845,3063
10,5852,Pacific Ave & Powell St  ,37.796556,-122.410037,1350010908,311
10,5852,Pacific Ave & Powell St  ,37.796556,-122.410037,1350011219,1932
10,5847,Pacific Ave & Mason St  ,37.796378,-122.411619,1349957999,1376
10,5847,Pacific Ave & Mason St  ,37.796378,-122.411619,1349959375,2864
10,5847,Pacific Ave & Mason St  ,37.796378,-122.411619,1349962239,269
10,5847,Pacific Ave & Mason St  ,37.796378,-122.411619,1349962508,1187
10,5847,Pacific Ave & Mason St  ,37.796378,-122.411619,1349963695,2805
10,5847,Pacific Ave & Mason St  ,37.796378,-122.411619,1349966500,1222
10,5847,Pacific Ave & Mason St  ,37.796378,-122.411619,1349967722,511
10,5847,Pacific Ave & Mason St  ,37.796378,-122.411619,1349968233,1154
10,5847,Pacific Ave & Mason St  ,37.796378,-122.411619,1349969387,75
10,5847,Pacific Ave & Mason St  ,37.796378,-122.411619,1349969462,759
10,5847,Pacific Ave & Mason St  ,37.796378,-122.411619,1349970221,983
10,5847,Pacific Ave & Mason St  ,37.796378,-122.411619,1349971204,2744
10,5847,Pacific Ave & Mason St  ,37.796378,-122.411619,1349973948,483
10,5847,Pacific Ave & Mason St  ,37.796378,-122.411619,1349974431,1630
10,5847,Pacific Ave & Mason St  ,37.796378,-122.411619,1349976061,781
10,5847,Pacific Ave & Mason St  ,37.796378,-122.411619,1349976842,3054
10,5847,Pacific Ave & Mason St  ,37.796378,-122.411619,1349979896,182
10,5847,Pacific Ave & Mason St  ,37.796378,-122.411619,1349980078,400
10,5847,Pacific Ave & Mason St  ,37.796378,-122.411619,1349980478,6
10,5847,Pacific Ave & Mason St  ,37.796378,-122.411619,1349980484,3032
10,5847,Pacific Ave & Mason St  ,37.796378,-122.411619,1349983516,857
10,5847,Pacific Ave & Mason St  ,37.796378,-122.411619,1349984373,412
10,5847,Pacific Ave & Mason St  ,37.796378,-122.411619,1349984785,865
10,5847,Pacific Ave & Mason St  ,37.796378,-122.411619,1349985650,953
10,5847,Pacific Ave & Mason St  ,37.796378,-122.411619,1349986603,1065
10,5847,Pacific Ave & Mason St  ,37.796378,-122.411619,1349987668,1187
10,5847,Pacific Ave & Mason St  ,37.796378,-122.411619,1349988855,1103
10,5847,Pacific Ave & Mason St  ,37.796378,-122.411619,1349989958,2048
10,5847,Pacific Ave & Mason St  ,37.796378,-122.411619,1349992006,154
10,5847,Pacific Ave & Mason St  ,37.796378,-122.411619,1349992160,1403
10,5847,Pacific Ave & Mason St  ,37.796378,-122.411619,1349993563,1151
10,5847,Pacific Ave & Mason St  ,37.796378,-122.411619,1349994714,1412
10,5847,Pacific Ave & Mason St  ,37.796378,-122.411619,1349996126,1683
10,5847,Pacific Ave & Mason St  ,37.796378,-122.411619,1349997809,846
10,5847,Pacific Ave & Mason St  ,37.796378,-122.411619,1349998655,1903
10,5847,Pacific Ave & Mason St  ,37.796378,-122.411619,1350000558,4551
10,5847,Pacific Ave & Mason St  ,37.796378,-122.411619,1350005109,2555
10,5847,Pacific Ave & Mason St  ,37.796378,-122.411619,1350007664,1070
10,5847,Pacific Ave & Mason St  ,37.796378,-122.411619,1350008734,1616
10,5847,Pacific Ave & Mason St  ,37.796378,-122.411619,1350010350,645
10,5847,Pacific Ave & Mason St  ,37.796378,-122.411619,1350010995,32
10,5847,Pacific Ave & Mason St  ,37.796378,-122.411619,1350011027,2239
10,5856,Pacific Ave & Taylor St  ,37.796165,-122.41327,1349958145,1210
10,5856,Pacific Ave & Taylor St  ,37.796165,-122.41327,1349959355,2776
10,5856,Pacific Ave & Taylor St  ,37.796165,-122.41327,1349962131,288
10,5856,Pacific Ave & Taylor St  ,37.796165,-122.41327,1349962419,1272
10,5856,Pacific Ave & Taylor St  ,37.796165,-122.41327,1349963691,2990
10,5856,Pacific Ave & Taylor St  ,37.796165,-122.41327,1349966681,688
10,5856,Pacific Ave & Taylor St  ,37.796165,-122.41327,1349967369,670
10,5856,Pacific Ave & Taylor St  ,37.796165,-122.41327,1349968039,20
10,5856,Pacific Ave & Taylor St  ,37.796165,-122.41327,1349968059,2525
10,5856,Pacific Ave & Taylor St  ,37.796165,-122.41327,1349970584,174
10,5856,Pacific Ave & Taylor St  ,37.796165,-122.41327,1349970758,1904
10,5856,Pacific Ave & Taylor St  ,37.796165,-122.41327,1349972662,1496
10,5856,Pacific Ave & Taylor St  ,37.796165,-122.41327,1349974158,767
10,5856,Pacific Ave & Taylor St  ,37.796165,-122.41327,1349974925,143
10,5856,Pacific Ave & Taylor St  ,37.796165,-122.41327,1349975068,925
10,5856,Pacific Ave & Taylor St  ,37.796165,-122.41327,1349975993,1138
10,5856,Pacific Ave & Taylor St  ,37.796165,-122.41327,1349977131,2066
10,5856,Pacific Ave & Taylor St  ,37.796165,-122.41327,1349979197,84
10,5856,Pacific Ave & Taylor St  ,37.796165,-122.41327,1349979281,2222
10,5856,Pacific Ave & Taylor St  ,37.796165,-122.41327,1349981503,1509
10,5856,Pacific Ave & Taylor St  ,37.796165,-122.41327,1349983012,1291
10,5856,Pacific Ave & Taylor St  ,37.796165,-122.41327,1349984303,1319
10,5856,Pacific Ave & Taylor St  ,37.796165,-122.41327,1349985622,36
10,5856,Pacific Ave & Taylor St  ,37.796165,-122.41327,1349985658,989
10,5856,Pacific Ave & Taylor St  ,37.796165,-122.41327,1349986647,2308
10,5856,Pacific Ave & Taylor St  ,37.796165,-122.41327,1349988955,171
10,5856,Pacific Ave & Taylor St  ,37.796165,-122.41327,1349989126,1844
10,5856,Pacific Ave & Taylor St  ,37.796165,-122.41327,1349990970,2807
10,5856,Pacific Ave & Taylor St  ,37.796165,-122.41327,1349993777,1754
10,5856,Pacific Ave & Taylor St  ,37.796165,-122.41327,1349995531,921
10,5856,Pacific Ave & Taylor St  ,37.796165,-122.41327,1349996452,421
10,5856,Pacific Ave & Taylor St  ,37.796165,-122.41327,1349996873,1615
10,5856,Pacific Ave & Taylor St  ,37.796165,-122.41327,1349998488,550
10,5856,Pacific Ave & Taylor St  ,37.796165,-122.41327,1349999038,1804
10,5856,Pacific Ave & Taylor St  ,37.796165,-122.41327,1350000842,363
10,5856,Pacific Ave & Taylor St  ,37.796165,-122.41327,1350001205,3288
10,5856,Pacific Ave & Taylor St  ,37.796165,-122.41327,1350004493,2108
10,5856,Pacific Ave & Taylor St  ,37.796165,-122.41327,1350006601,3210
10,5856,Pacific Ave & Taylor St  ,37.796165,-122.41327,1350009811,1239
10,5856,Pacific Ave & Taylor St  ,37.796165,-122.41327,1350011050,208
10,5856,Pacific Ave & Taylor St  ,37.796165,-122.41327,1350011258,1509
10,5856,Pacific Ave & Taylor St  ,37.796165,-122.41327,1350012767,699
10,5840,Pacific Ave & Jones St  ,37.79596,-122.41491,1349958045,1541
10,5840,Pacific Ave & Jones St  ,37.79596,-122.41491,1349959586,2814
10,5840,Pacific Ave & Jones St  ,37.79596,-122.41491,1349962400,100
10,5840,Pacific Ave & Jones St  ,37.79596,-122.41491,1349962500,1700
10,5840,Pacific Ave & Jones St  ,37.79596,-122.41491,1349964200,1675
10,5840,Pacific Ave & Jones St  ,37.79596,-122.41491,1349965875,1393
10,5840,Pacific Ave & Jones St  ,37.79596,-122.41491,1349967268,1156
10,5840,Pacific Ave & Jones St  ,37.79596,-122.41491,1349968424,896
10,5840,Pacific Ave & Jones St  ,37.79596,-122.41491,1349969320,1050
10,5840,Pacific Ave & Jones St  ,37.79596,-122.41491,1349970370,202
10,5840,Pacific Ave & Jones St  ,37.79596,-122.41491,1349970572,697
10,5840,Pacific Ave & Jones St  ,37.79596,-122.41491,1349971269,3548
10,5840,Pacific Ave & Jones St  ,37.79596,-122.41491,1349974817,571
10,5840,Pacific Ave & Jones St  ,37.79596,-122.41491,1349975388,612
10,5840,Pacific Ave & Jones St  ,37.79596,-122.41491,1349976000,1628
10,5840,Pacific Ave & Jones St  ,37.79596,-122.41491,1349977628,1617
10,5840,Pacific Ave & Jones St  ,37.79596,-122.41491,1349979245,647
10,5840,Pacific Ave & Jones St  ,37.79596,-122.41491,1349979892,2398
10,5840,Pacific Ave & Jones St  ,37.79596,-122.41491,1349982290,1085
10,5840,Pacific Ave & Jones St  ,37.79596,-122.41491,1349983375,915
10,5840,Pacific Ave & Jones St  ,37.79596,-122.41491,1349984290,892
10,5840,Pacific Ave & Jones St  ,37.79596,-122.41491,1349985182,2273
10,5840,Pacific Ave & Jones St  ,37.79596,-122.41491,1349987455,253
10,5840,Pacific Ave & Jones St  ,37.79596,-122.41491,1349987708,97
10,5840,Pacific Ave & Jones St  ,37.79596,-122.41491,1349987805,1129
10,5840,Pacific Ave & Jones St  ,37.79596,-122.41491,1349988934,1559
10,5840,Pacific Ave & Jones St  ,37.79596,-122.41491,1349990493,790
10,5840,Pacific Ave & Jones St  ,37.79596,-122.41491,1349991283,294
10,5840,Pacific Ave & Jones St  ,37.79596,-122.41491,1349991577,682
10,5840,Pacific Ave & Jones St  ,37.79596,-122.41491,1349992259,1594
10,5840,Pacific Ave & Jones St  ,37.79596,-122.41491,1349993853,935
10,5840,Pacific Ave & Jones St  ,37.79596,-122.41491,1349994788,1644
10,5840,Pacific Ave & Jones St  ,37.79596,-122.41491,1349996432,1087
10,5840,Pacific Ave & Jones St  ,37.79596,-122.41491,1349997519,3269
10,5840,Pacific Ave & Jones St  ,37.79596,-122.41491,1350000788,210
10,5840,Pacific Ave & Jones St  ,37.79596,-122.41491,1350000998,2561
10,5840,Pacific Ave & Jones St  ,37.79596,-122.41491,1350003559,2913
10,5840,Pacific Ave & Jones St  ,37.79596,-122.41491,1350006472,717
10,5840,Pacific Ave & Jones St  ,37.79596,-122.41491,1350007189,1602
10,5840,Pacific Ave & Jones St  ,37.79596,-122.41491,1350008791,2231
10,5840,Pacific Ave & Jones St  ,37.79596,-122.41491,1350011022,423
10,5840,Pacific Ave & Jones St  ,37.79596,-122.41491,1350011445,1856
10,5845,Pacific Ave & Leavenworth St  ,37.795755,-122.416549,1349957986,1231
10,5845,Pacific Ave & Leavenworth St  ,37.795755,-122.416549,1349959217,3253
10,5845,Pacific Ave & Leavenworth St  ,37.795755,-122.416549,1349962470,256
10,5845,Pacific Ave & Leavenworth St  ,37.795755,-122.416549,1349962726,1056
10,5845,Pacific Ave & Leavenworth St  ,37.795755,-122.416549,1349963782,2402
10,5845,Pacific Ave & Leavenworth St  ,37.795755,-122.416549,1349966184,1192
10,5845,Pacific Ave & Leavenworth St  ,37.795755,-122.416549,1349967376,936
10,5845,Pacific Ave & Leavenworth St  ,37.795755,-122.416549,1349968312,7
10,5845,Pacific Ave & Leavenworth St  ,37.795755,-122.416549,1349968319,1353
10,5845,Pacific Ave & Leavenworth St  ,37.795755,-122.416549,1349969672,1145
10,5845,Pacific Ave & Leavenworth St  ,37.795755,-122.416549,1349970817,2719
10,5845,Pacific Ave & Leavenworth St  ,37.795755,-122.416549,1349973536,470
10,5845,Pacific Ave & Leavenworth St  ,37.795755,-122.416549,1349974006,670
10,5845,Pacific Ave & Leavenworth St  ,37.795755,-122.416549,1349974676,1285
10,5845,Pacific Ave & Leavenworth St  ,37.795755,-122.416549,1349975961,1128
10,5845,Pacific Ave & Leavenworth St  ,37.795755,-122.416549,1349977089,304
10,5845,Pacific Ave & Leavenworth St  ,37.795755,-122.416549,1349977393,1743
10,5845,Pacific Ave & Leavenworth St  ,37.795755,-122.416549,1349979136,293
10,5845,Pacific Ave & Leavenworth St  ,37.795755,-122.416549,1349979429,2290
10,5845,Pacific Ave & Leavenworth St  ,37.795755,-122.416549,1349981719,2904
10,5845,Pacific Ave & Leavenworth St  ,37.795755,-122.416549,1349984623,920
10,5845,Pacific Ave & Leavenworth St  ,37.795755,-122.416549,1349985543,39
10,5845,Pacific Ave & Leavenworth St  ,37.795755,-122.416549,1349985582,48
10,5845,Pacific Ave & Leavenworth St  ,37.795755,-122.416549,1349985630,1016
10,5845,Pacific Ave & Leavenworth St  ,37.795755,-122.416549,1349986646,1361
10,5845,Pacific Ave & Leavenworth St  ,37.795755,-122.416549,1349988007,1080
10,5845,Pacific Ave & Leavenworth St  ,37.795755,-122.416549,1349989087,2207
10,5845,Pacific Ave & Leavenworth St  ,37.795755,-122.416549,1349991294,2649
10,5845,Pacific Ave & Leavenworth St  ,37.795755,-122.416549,1349993943,390
10,5845,Pacific Ave & Leavenworth St  ,37.795755,-122.416549,1349994333,1092
10,5845,Pacific Ave & Leavenworth St  ,37.795755,-122.416549,1349995425,1229
10,5845,Pacific Ave & Leavenworth St  ,37.795755,-122.416549,1349996654,1083
10,5845,Pacific Ave & Leavenworth St  ,37.795755,-122.416549,1349997737,858
10,5845,Pacific Ave & Leavenworth St  ,37.795755,-122.416549,1349998595,2028
10,5845,Pacific Ave & Leavenworth St  ,37.795755,-122.416549,1350000623,5057
10,5845,Pacific Ave & Leavenworth St  ,37.795755,-122.416549,1350005680,1067
10,5845,Pacific Ave & Leavenworth St  ,37.795755,-122.416549,1350006747,1218
10,5845,Pacific Ave & Leavenworth St  ,37.795755,-122.416549,1350007965,1248
10,5845,Pacific Ave & Leavenworth St  ,37.795755,-122.416549,1350009213,1735
10,5845,Pacific Ave & Leavenworth St  ,37.795755,-122.416549,1350010948,50
10,5845,Pacific Ave & Leavenworth St  ,37.795755,-122.416549,1350010998,753
10,5845,Pacific Ave & Leavenworth St  ,37.795755,-122.416549,1350011751,2232
10,5838,Pacific Ave & Hyde St  ,37.79555,-122.4182,1349958166,1273
10,5838,Pacific Ave & Hyde St  ,37.79555,-122.4182,1349959439,3307
10,5838,Pacific Ave & Hyde St  ,37.79555,-122.4182,1349962746,646
10,5838,Pacific Ave & Hyde St  ,37.79555,-122.4182,1349963392,95
10,5838,Pacific Ave & Hyde St  ,37.79555,-122.4182,1349963487,2669
10,5838,Pacific Ave & Hyde St  ,37.79555,-122.4182,1349966156,1806
10,5838,Pacific Ave & Hyde St  ,37.79555,-122.4182,1349967962,83
10,5838,Pacific Ave & Hyde St  ,37.79555,-122.4182,1349968045,1527
10,5838,Pacific Ave & Hyde St  ,37.79555,-122.4182,1349969572,286
10,5838,Pacific Ave & Hyde St  ,37.79555,-122.4182,1349969858,1202
10,5838,Pacific Ave & Hyde St  ,37.79555,-122.4182,1349971060,71
10,5838,Pacific Ave & Hyde St  ,37.79555,-122.4182,1349971131,2831
10,5838,Pacific Ave & Hyde St  ,37.79555,-122.4182,1349973962,861
10,5838,Pacific Ave & Hyde St  ,37.79555,-122.4182,1349974823,516
10,5838,Pacific Ave & Hyde St  ,37.79555,-122.4182,1349975339,2154
10,5838,Pacific Ave & Hyde St  ,37.79555,-122.4182,1349977493,64
10,5838,Pacific Ave & Hyde St  ,37.79555,-122.4182,1349977557,1454
10,5838,Pacific Ave & Hyde St  ,37.79555,-122.4182,1349979011,1614
10,5838,Pacific Ave & Hyde St  ,37.79555,-122.4182,1349980625,1850
10,5838,Pacific Ave & Hyde St  ,37.79555,-122.4182,1349982475,939
10,5838,Pacific Ave & Hyde St  ,37.79555,-122.4182,1349983414,1550
10,5838,Pacific Ave & Hyde St  ,37.79555,-122.4182,1349984964,132
10,5838,Pacific Ave & Hyde St  ,37.79555,-122.4182,1349985096,2677
10,5838,Pacific Ave & Hyde St  ,37.79555,-122.4182,1349987773,1888
10,5838,Pacific Ave & Hyde St  ,37.79555,-122.4182,1349989661,6
10,5838,Pacific Ave & Hyde St  ,37.79555,-122.4182,1349989667,1504
10,5838,Pacific Ave & Hyde St  ,37.79555,-122.4182,1349991171,681
10,5838,Pacific Ave & Hyde St  ,37.79555,-122.4182,1349991852,1074
10,5838,Pacific Ave & Hyde St  ,37.79555,-122.4182,1349992926,228
10,5838,Pacific Ave & Hyde St  ,37.79555,-122.4182,1349993154,3283
10,5838,Pacific Ave & Hyde St  ,37.79555,-122.4182,1349996437,107
10,5838,Pacific Ave & Hyde St  ,37.79555,-122.4182,1349996544,1829
10,5838,Pacific Ave & Hyde St  ,37.79555,-122.4182,1349998373,503
10,5838,Pacific Ave & Hyde St  ,37.79555,-122.4182,1349998876,3119
10,5838,Pacific Ave & Hyde St  ,37.79555,-122.4182,1350001995,3320
10,5838,Pacific Ave & Hyde St  ,37.79555,-122.4182,1350005315,1473
10,5838,Pacific Ave & Hyde St  ,37.79555,-122.4182,1350006788,1218
10,5838,Pacific Ave & Hyde St  ,37.79555,-122.4182,1350008006,433
10,5838,Pacific Ave & Hyde St  ,37.79555,-122.4182,1350008439,2647
10,5838,Pacific Ave & Hyde St  ,37.79555,-122.4182,1350011086,77
10,5838,Pacific Ave & Hyde St  ,37.79555,-122.4182,1350011163,2587
10,5838,Pacific Ave & Hyde St  ,37.79555,-122.4182,1350013750,6501
10,5843,Pacific Ave & Larkin St  ,37.795328,-122.419863,1349959230,1203
10,5843,Pacific Ave & Larkin St  ,37.795328,-122.419863,1349960433,1972
10,5843,Pacific Ave & Larkin St  ,37.795328,-122.419863,1349962405,447
10,5843,Pacific Ave & Larkin St  ,37.795328,-122.419863,1349962852,582
10,5843,Pacific Ave & Larkin St  ,37.795328,-122.419863,1349963434,2505
10,5843,Pacific Ave & Larkin St  ,37.795328,-122.419863,1349965939,2278
10,5843,Pacific Ave & Larkin St  ,37.795328,-122.419863,1349968217,836
10,5843,Pacific Ave & Larkin St  ,37.795328,-122.419863,1349969053,1319
10,5843,Pacific Ave & Larkin St  ,37.795328,-122.419863,1349970372,275
10,5843,Pacific Ave & Larkin St  ,37.795328,-122.419863,1349970647,1186
10,5843,Pacific Ave & Larkin St  ,37.795328,-122.419863,1349971833,827
10,5843,Pacific Ave & Larkin St  ,37.795328,-122.419863,1349972660,100
10,5843,Pacific Ave & Larkin St  ,37.795328,-122.419863,1349972760,1834
10,5843,Pacific Ave & Larkin St  ,37.795328,-122.419863,1349974594,83
10,5843,Pacific Ave & Larkin St  ,37.795328,-122.419863,1349974677,1896
10,5843,Pacific Ave & Larkin St  ,37.795328,-122.419863,1349976573,1300
10,5843,Pacific Ave & Larkin St  ,37.795328,-122.419863,1349977873,1215
10,5843,Pacific Ave & Larkin St  ,37.795328,-122.419863,1349979088,239
10,5843,Pacific Ave & Larkin St  ,37.795328,-122.419863,1349979327,3814
10,5843,Pacific Ave & Larkin St  ,37.795328,-122.419863,1349983141,319
10,5843,Pacific Ave & Larkin St  ,37.795328,-122.419863,1349983460,13
10,5843,Pacific Ave & Larkin St  ,37.795328,-122.419863,1349983473,1013
10,5843,Pacific Ave & Larkin St  ,37.795328,-122.419863,1349984486,1568
10,5843,Pacific Ave & Larkin St  ,37.795328,-122.419863,1349986054,981
10,5843,Pacific Ave & Larkin St  ,37.795328,-122.419863,1349987035,1540
10,5843,Pacific Ave & Larkin St  ,37.795328,-122.419863,1349988575,875
10,5843,Pacific Ave & Larkin St  ,37.795328,-122.419863,1349989450,1381
10,5843,Pacific Ave & Larkin St  ,37.795328,-122.419863,1349990831,1632
10,5843,Pacific Ave & Larkin St  ,37.795328,-122.419863,1349992463,1395
10,5843,Pacific Ave & Larkin St  ,37.795328,-122.419863,1349993858,143
10,5843,Pacific Ave & Larkin St  ,37.795328,-122.419863,1349994001,991
10,5843,Pacific Ave & Larkin St  ,37.795328,-122.419863,1349994992,1265
10,5843,Pacific Ave & Larkin St  ,37.795328,-122.419863,1349996257,2560
10,5843,Pacific Ave & Larkin St  ,37.795328,-122.419863,1349998817,1417
10,5843,Pacific Ave & Larkin St  ,37.795328,-122.419863,1350000234,551
10,5843,Pacific Ave & Larkin St  ,37.795328,-122.419863,1350000785,2817
10,5843,Pacific Ave & Larkin St  ,37.795328,-122.419863,1350003602,3511
10,5843,Pacific Ave & Larkin St  ,37.795328,-122.419863,1350007113,704
10,5843,Pacific Ave & Larkin St  ,37.795328,-122.419863,1350007817,3327
10,5843,Pacific Ave & Larkin St  ,37.795328,-122.419863,1350011144,45
10,5843,Pacific Ave & Larkin St  ,37.795328,-122.419863,1350011189,1926
10,5843,Pacific Ave & Larkin St  ,37.795328,-122.419863,1350013115,5804
10,5850,Pacific Ave & Polk St  ,37.795114,-122.42148,1349958145,1137
10,5850,Pacific Ave & Polk St  ,37.795114,-122.42148,1349959282,3248
10,5850,Pacific Ave & Polk St  ,37.795114,-122.42148,1349962530,237
10,5850,Pacific Ave & Polk St  ,37.795114,-122.42148,1349962767,2097
10,5850,Pacific Ave & Polk St  ,37.795114,-122.42148,1349964864,3047
10,5850,Pacific Ave & Polk St  ,37.795114,-122.42148,1349967911,373
10,5850,Pacific Ave & Polk St  ,37.795114,-122.42148,1349968284,42
10,5850,Pacific Ave & Polk St  ,37.795114,-122.42148,1349968326,383
10,5850,Pacific Ave & Polk St  ,37.795114,-122.42148,1349968709,1199
10,5850,Pacific Ave & Polk St  ,37.795114,-122.42148,1349969908,1109
10,5850,Pacific Ave & Polk St  ,37.795114,-122.42148,1349971017,3147
10,5850,Pacific Ave & Polk St  ,37.795114,-122.42148,1349974164,140
10,5850,Pacific Ave & Polk St  ,37.795114,-122.42148,1349974304,390
10,5850,Pacific Ave & Polk St  ,37.795114,-122.42148,1349974694,579
10,5850,Pacific Ave & Polk St  ,37.795114,-122.42148,1349975273,1314
10,5850,Pacific Ave & Polk St  ,37.795114,-122.42148,1349976587,700
10,5850,Pacific Ave & Polk St  ,37.795114,-122.42148,1349977287,1847
10,5850,Pacific Ave & Polk St  ,37.795114,-122.42148,1349979134,2352
10,5850,Pacific Ave & Polk St  ,37.795114,-122.42148,1349981486,2269
10,5850,Pacific Ave & Polk St  ,37.795114,-122.42148,1349983755,786
10,5850,Pacific Ave & Polk St  ,37.795114,-122.42148,1349984541,601
10,5850,Pacific Ave & Polk St  ,37.795114,-122.42148,1349985142,12
10,5850,Pacific Ave & Polk St  ,37.795114,-122.42148,1349985154,2830
10,5850,Pacific Ave & Polk St  ,37.795114,-122.42148,1349987984,2830
10,5850,Pacific Ave & Polk St  ,37.795114,-122.42148,1349990814,2536
10,5850,Pacific Ave & Polk St  ,37.795114,-122.42148,1349993350,1606
10,5850,Pacific Ave & Polk St  ,37.795114,-122.42148,1349994956,564
10,5850,Pacific Ave & Polk St  ,37.795114,-122.42148,1349995520,416
10,5850,Pacific Ave & Polk St  ,37.795114,-122.42148,1349995936,357
10,5850,Pacific Ave & Polk St  ,37.795114,-122.42148,1349996293,1330
10,5850,Pacific Ave & Polk St  ,37.795114,-122.42148,1349997623,105
10,5850,Pacific Ave & Polk St  ,37.795114,-122.42148,1349997728,1231
10,5850,Pacific Ave & Polk St  ,37.795114,-122.42148,1349998959,803
10,5850,Pacific Ave & Polk St  ,37.795114,-122.42148,1349999762,909
10,5850,Pacific Ave & Polk St  ,37.795114,-122.42148,1350000671,4507
10,5850,Pacific Ave & Polk St  ,37.795114,-122.42148,1350005178,1873
10,5850,Pacific Ave & Polk St  ,37.795114,-122.42148,1350007051,202
10,5850,Pacific Ave & Polk St  ,37.795114,-122.42148,1350007253,749
10,5850,Pacific Ave & Polk St  ,37.795114,-122.42148,1350008002,3101
10,5850,Pacific Ave & Polk St  ,37.795114,-122.42148,1350011103,253
10,5850,Pacific Ave & Polk St  ,37.795114,-122.42148,1350011356,2057
10,5850,Pacific Ave & Polk St  ,37.795114,-122.42148,1350013413,15606
10,5859,Pacific Ave & Van Ness Ave  ,37.794784,-122.422901,1349958169,1602
10,5859,Pacific Ave & Van Ness Ave  ,37.794784,-122.422901,1349959771,2985
10,5859,Pacific Ave & Van Ness Ave  ,37.794784,-122.422901,1349962756,595
10,5859,Pacific Ave & Van Ness Ave  ,37.794784,-122.422901,1349963351,202
10,5859,Pacific Ave & Van Ness Ave  ,37.794784,-122.422901,1349963553,2762
10,5859,Pacific Ave & Van Ness Ave  ,37.794784,-122.422901,1349966315,1901
10,5859,Pacific Ave & Van Ness Ave  ,37.794784,-122.422901,1349968216,110
10,5859,Pacific Ave & Van Ness Ave  ,37.794784,-122.422901,1349968326,945
10,5859,Pacific Ave & Van Ness Ave  ,37.794784,-122.422901,1349969271,597
10,5859,Pacific Ave & Van Ness Ave  ,37.794784,-122.422901,1349969868,1250
10,5859,Pacific Ave & Van Ness Ave  ,37.794784,-122.422901,1349971118,312
10,5859,Pacific Ave & Van Ness Ave  ,37.794784,-122.422901,1349971430,3021
10,5859,Pacific Ave & Van Ness Ave  ,37.794784,-122.422901,1349974451,653
10,5859,Pacific Ave & Van Ness Ave  ,37.794784,-122.422901,1349975104,1011
10,5859,Pacific Ave & Van Ness Ave  ,37.794784,-122.422901,1349976115,661
10,5859,Pacific Ave & Van Ness Ave  ,37.794784,-122.422901,1349976776,474
10,5859,Pacific Ave & Van Ness Ave  ,37.794784,-122.422901,1349977250,1892
10,5859,Pacific Ave & Van Ness Ave  ,37.794784,-122.422901,1349979142,416
10,5859,Pacific Ave & Van Ness Ave  ,37.794784,-122.422901,1349979558,1687
10,5859,Pacific Ave & Van Ness Ave  ,37.794784,-122.422901,1349981245,1375
10,5859,Pacific Ave & Van Ness Ave  ,37.794784,-122.422901,1349982620,674
10,5859,Pacific Ave & Van Ness Ave  ,37.794784,-122.422901,1349983294,2009
10,5859,Pacific Ave & Van Ness Ave  ,37.794784,-122.422901,1349985303,1806
10,5859,Pacific Ave & Van Ness Ave  ,37.794784,-122.422901,1349987109,1475
10,5859,Pacific Ave & Van Ness Ave  ,37.794784,-122.422901,1349988584,1139
10,5859,Pacific Ave & Van Ness Ave  ,37.794784,-122.422901,1349989723,688
10,5859,Pacific Ave & Van Ness Ave  ,37.794784,-122.422901,1349990411,873
10,5859,Pacific Ave & Van Ness Ave  ,37.794784,-122.422901,1349991284,404
10,5859,Pacific Ave & Van Ness Ave  ,37.794784,-122.422901,1349991688,1438
10,5859,Pacific Ave & Van Ness Ave  ,37.794784,-122.422901,1349993126,1019
10,5859,Pacific Ave & Van Ness Ave  ,37.794784,-122.422901,1349994145,901
10,5859,Pacific Ave & Van Ness Ave  ,37.794784,-122.422901,1349995046,1333
10,5859,Pacific Ave & Van Ness Ave  ,37.794784,-122.422901,1349996379,2724
10,5859,Pacific Ave & Van Ness Ave  ,37.794784,-122.422901,1349999103,1384
10,5859,Pacific Ave & Van Ness Ave  ,37.794784,-122.422901,1350000487,4020
10,5859,Pacific Ave & Van Ness Ave  ,37.794784,-122.422901,1350004507,1433
10,5859,Pacific Ave & Van Ness Ave  ,37.794784,-122.422901,1350005940,1038
10,5859,Pacific Ave & Van Ness Ave  ,37.794784,-122.422901,1350006978,131
10,5859,Pacific Ave & Van Ness Ave  ,37.794784,-122.422901,1350007109,2173
10,5859,Pacific Ave & Van Ness Ave  ,37.794784,-122.422901,1350009282,1982
10,5859,Pacific Ave & Van Ness Ave  ,37.794784,-122.422901,1350011264,56
10,5859,Pacific Ave & Van Ness Ave  ,37.794784,-122.422901,1350011320,2104
10,7203,JACKSON ST & POLK ST,37.794177,-122.421732,1349958174,2109
10,7203,JACKSON ST & POLK ST,37.794177,-122.421732,1349960283,2311
10,7203,JACKSON ST & POLK ST,37.794177,-122.421732,1349962594,224
10,7203,JACKSON ST & POLK ST,37.794177,-122.421732,1349962818,1944
10,7203,JACKSON ST & POLK ST,37.794177,-122.421732,1349964762,2251
10,7203,JACKSON ST & POLK ST,37.794177,-122.421732,1349967013,1068
10,7203,JACKSON ST & POLK ST,37.794177,-122.421732,1349968081,905
10,7203,JACKSON ST & POLK ST,37.794177,-122.421732,1349968986,1632
10,7203,JACKSON ST & POLK ST,37.794177,-122.421732,1349970618,430
10,7203,JACKSON ST & POLK ST,37.794177,-122.421732,1349971048,330
10,7203,JACKSON ST & POLK ST,37.794177,-122.421732,1349971378,1487
10,7203,JACKSON ST & POLK ST,37.794177,-122.421732,1349972865,3
10,7203,JACKSON ST & POLK ST,37.794177,-122.421732,1349972868,3895
10,7203,JACKSON ST & POLK ST,37.794177,-122.421732,1349976763,510
10,7203,JACKSON ST & POLK ST,37.794177,-122.421732,1349977273,110
10,7203,JACKSON ST & POLK ST,37.794177,-122.421732,1349977383,25
10,7203,JACKSON ST & POLK ST,37.794177,-122.421732,1349977408,2005
10,7203,JACKSON ST & POLK ST,37.794177,-122.421732,1349979413,1694
10,7203,JACKSON ST & POLK ST,37.794177,-122.421732,1349981107,1115
10,7203,JACKSON ST & POLK ST,37.794177,-122.421732,1349982222,271
10,7203,JACKSON ST & POLK ST,37.794177,-122.421732,1349982493,1863
10,7203,JACKSON ST & POLK ST,37.794177,-122.421732,1349984356,323
10,7203,JACKSON ST & POLK ST,37.794177,-122.421732,1349984679,1132
10,7203,JACKSON ST & POLK ST,37.794177,-122.421732,1349985811,1484
10,7203,JACKSON ST & POLK ST,37.794177,-122.421732,1349987295,1057
10,7203,JACKSON ST & POLK ST,37.794177,-122.421732,1349988352,1068
10,7203,JACKSON ST & POLK ST,37.794177,-122.421732,1349989420,1258
10,7203,JACKSON ST & POLK ST,37.794177,-122.421732,1349990678,906
10,7203,JACKSON ST & POLK ST,37.794177,-122.421732,1349991584,1312
10,7203,JACKSON ST & POLK ST,37.794177,-122.421732,1349992896,1846
10,7203,JACKSON ST & POLK ST,37.794177,-122.421732,1349994742,805
10,7203,JACKSON ST & POLK ST,37.794177,-122.421732,1349995547,771
10,7203,JACKSON ST & POLK ST,37.794177,-122.421732,1349996318,1871
10,7203,JACKSON ST & POLK ST,37.794177,-122.421732,1349998189,2424
10,7203,JACKSON ST & POLK ST,37.794177,-122.421732,1350000613,2070
10,7203,JACKSON ST & POLK ST,37.794177,-122.421732,1350002683,1565
10,7203,JACKSON ST & POLK ST,37.794177,-122.421732,1350004248,2944
10,7203,JACKSON ST & POLK ST,37.794177,-122.421732,1350007192,1291
10,7203,JACKSON ST & POLK ST,37.794177,-122.421732,1350008483,912
10,7203,JACKSON ST & POLK ST,37.794177,-122.421732,1350009395,1884
10,7203,JACKSON ST & POLK ST,37.794177,-122.421732,1350011279,122
10,7203,JACKSON ST & POLK ST,37.794177,-122.421732,1350011401,2713
